cert,company_name,main_office,branch_name,established_date,service_type,address,county,city,state,zip,latitude,longitude
57803,Ally Bank,1,Ally Bank,2004-08-02,Full Service Brick and Mortar Office,200 W Civic Center Dr,Salt Lake,Sandy,Utah,84070,40.57241749711447,-111.89603258381904
34968,Banco Popular de Puerto Rico,0,EXPRESO GARDEN HILLS BRANCH,2011-06-30,Full Service Brick and Mortar Office,Carr 19 Esq. Ramirez De Arellano Garden Hills Plaza,Guaynabo,Guaynabo,Puerto Rico,966,18.39667348439383,-66.11518943964091
34968,Banco Popular de Puerto Rico,0,SAN FRANCISCO BRANCH,1970-04-20,Full Service Brick and Mortar Office,201 Ave De Diego,San Juan,San Juan,Puerto Rico,927,18.386381998838104,-66.0817810083189
34968,Banco Popular de Puerto Rico,0,HUMACAO ESTE BRANCH,1971-11-18,Full Service Brick and Mortar Office,3 Carr Triumph Plaza,Humacao,Humacao,Puerto Rico,791,18.147994469000423,-65.81733183899962
34968,Banco Popular de Puerto Rico,0,ISLA VERDE BRANCH,1975-01-27,Full Service Brick and Mortar Office,Baldorioty De Castro Avenue,Carolina,Carolina,Puerto Rico,979,18.433529,-66.011814
34968,Banco Popular de Puerto Rico,0,BAYAMON OESTE BRANCH,1976-01-19,Full Service Brick and Mortar Office,Bayamon Oeste Shopping Center,Bayamon,Bayamon,Puerto Rico,961,18.411109,-66.159246
34968,Banco Popular de Puerto Rico,0,EL SENORIAL MALL BRANCH,1976-04-30,Full Service Brick and Mortar Office,22 Ave Winston Churchill,San Juan,San Juan,Puerto Rico,926,18.37017701397193,-66.06807299240869
34968,Banco Popular de Puerto Rico,0,TRUJILLO ALTO BRANCH,1980-07-14,Full Service Brick and Mortar Office,Munoz Rivera No 3,Trujillo Alto,Trujillo Alto,Puerto Rico,976,18.336122,-65.998814
34968,Banco Popular de Puerto Rico,0,CENTRO MEDICO BRANCH,1982-10-11,Full Service Brick and Mortar Office,"Medical Center, Monacillos Ward",San Juan,San Juan,Puerto Rico,928,0.0,0.0
34968,Banco Popular de Puerto Rico,0,RIO HONDO BRANCH,1983-11-01,Full Service Brick and Mortar Office,"Plaza Rio Hondo, Avenida Comerio",Bayamon,Bayamon,Puerto Rico,957,18.368841,-66.187401
34968,Banco Popular de Puerto Rico,1,Banco Popular de Puerto Rico,1999-01-02,Full Service Brick and Mortar Office,209 Avenida Luis Munoz Rivera,San Juan,San Juan,Puerto Rico,00918,18.432954,-66.06027225
34968,Banco Popular de Puerto Rico,0,MAYAGUEZ MALL SUR BRANCH,1987-08-17,Full Service Brick and Mortar Office,Mayaguez Mall Shopping Center,Mayaguez,Hormigueros,Puerto Rico,680,18.208055,-67.099053
34968,Banco Popular de Puerto Rico,0,PONCE TOWNE CENTER  BRANCH,1977-01-31,Full Service Brick and Mortar Office,Calle Maruca Local 3-A Bo Canas Carr. Pr 2,Ponce,Ponce,Puerto Rico,731,18.103861405479503,-66.62569139144455
34968,Banco Popular de Puerto Rico,0,MAIN OFFICE BRANCH,1993-09-30,Full Service Brick and Mortar Office,193 Altona & Welgunst,St. Thomas,Charlotte Amalie,Virgin Islands Of The U.S.,802,18.33225984501587,-64.88410425051069
34968,Banco Popular de Puerto Rico,0,FORT MYLNER BRANCH,1993-09-30,Full Service Brick and Mortar Office,"Fort Mylner Shopping Center, Parcels 2-1, 2-2, 2-3",St. Thomas,Charlotte Amalie,Virgin Islands Of The U.S.,801,18.341245,-64.93405
34968,Banco Popular de Puerto Rico,0,SUGAR STATE BRANCH,1993-09-30,Full Service Brick and Mortar Office,"Lock Shart Gardens Shopping Center, Estate Thomas",St. Thomas,Charlotte Amalie,Virgin Islands Of The U.S.,801,18.341245,-64.93405
34968,Banco Popular de Puerto Rico,0,RED HOOK BRANCH,1993-09-30,Full Service Brick and Mortar Office,"Estate Smith Bay #1, 2, And 3 East End Quarter",St. Thomas,Charlotte Amalie,Virgin Islands Of The U.S.,801,18.341245,-64.93405
34968,Banco Popular de Puerto Rico,0,MONTEHIEDRA BRANCH,1996-04-01,Full Service Brick and Mortar Office,"Carr. Los Romeros, Bo. Caimito Km. 1, Hm. 9",San Juan,Rio Piedras,Puerto Rico,926,18.347484,-66.059463
34968,Banco Popular de Puerto Rico,0,GALERIAS PASEOS BRANCH,1996-04-20,Full Service Brick and Mortar Office,"Centro Commercial Galerias Paseos, Esq. Ave. Grand Boulevard #100",San Juan,Rio Piedras,Puerto Rico,926,18.347484,-66.059463
34968,Banco Popular de Puerto Rico,0,Isabela Mall Branch,1994-10-17,Full Service Brick and Mortar Office,Plazoleta De Isabela Barrio Mora State Road No 2 Int. 4494 Km.1,Isabela,Isabela,Puerto Rico,662,18.47003003976775,-67.02416994936027
34968,Banco Popular de Puerto Rico,0,PARQUE ESCORIAL BRANCH,1988-05-31,Full Service Brick and Mortar Office,Cntro Commercial Parque Escorial,San Juan,Rio Piedras,Puerto Rico,926,18.347484,-66.059463
34968,Banco Popular de Puerto Rico,0,MALL OF SAN JUAN BRANCH,2019-12-06,Full Service Brick and Mortar Office,1000 The Mall Of San Juan Boulevard,San Juan,San Juan,Puerto Rico,00924,18.41198526643466,-66.02476138234725
34968,Banco Popular de Puerto Rico,0,Mayaguez Mall Sur Branch,1991-10-01,Full Service Brick and Mortar Office,975 Avenue Hostos,Mayaguez,Mayaguez,Puerto Rico,680,18.15603598400766,-67.14487103146728
34968,Banco Popular de Puerto Rico,0,SAN PATRICIO MALL BRANCH,1996-11-20,Full Service Brick and Mortar Office,"Centro Comercial San Patricio, Calle Ortegon, Caparra Hills",Guaynabo,Guaynabo,Puerto Rico,922,18.411908,-66.100099
34968,Banco Popular de Puerto Rico,0,HUMACAO PALMA REAL,1996-12-23,Full Service Brick and Mortar Office,Carr. 3 Km. 84 Centro Comercial Palma Real,Humacao,Humacao,Puerto Rico,791,18.143377212388486,-65.81488878069263
34968,Banco Popular de Puerto Rico,0,Ponce Town Center Branch,2003-02-14,Full Service Brick and Mortar Office,Carr 2 Km 222.4 Centro,Ponce,Ponce,Puerto Rico,732,17.983274142317597,-66.6591727454604
34968,Banco Popular de Puerto Rico,0,EL MERCADO PLAZA,1996-12-30,Full Service Brick and Mortar Office,"Centro Comercial Mercado Plaza, Bo. Cedro Arriba, Carr 152, Km. 14, Hm. 6",Naranjito,Naranjito,Puerto Rico,719,18.288338,-66.252811
34968,Banco Popular de Puerto Rico,0,PLAZA LAS AMERICAS BRANCH,1996-10-28,Full Service Brick and Mortar Office,"Primer Nivel, Suite 109 Centro Comercial Plaza Las Americas",San Juan,San Juan,Puerto Rico,919,18.427026700000056,-66.07045479999994
34968,Banco Popular de Puerto Rico,0,ARECIBO SAN LUIS BRANCH,1968-11-12,Full Service Brick and Mortar Office,614 Ave San Luis,Arecibo,Arecibo,Puerto Rico,612,18.468824009629344,-66.73085295908659
34968,Banco Popular de Puerto Rico,0,PLAZA CAROLINA BRANCH,1966-07-19,Full Service Brick and Mortar Office,"Avenue Fragroso, Ruta 26",Carolina,Carolina,Puerto Rico,987,18.36882515900044,-65.98844320699965
34968,Banco Popular de Puerto Rico,0,CONDADO GALLERY BRANCH,1917-04-15,Full Service Brick and Mortar Office,100 Ave Roberto H Todd,San Juan,Santurce,Puerto Rico,907,18.45227800703248,-66.07403596214672
34968,Banco Popular de Puerto Rico,0,WALMART PARADA 18 BRANCH,2013-03-15,Full Service Retail Office,Roberto H Todd Avenue Parada 18,San Juan,San Juan,Puerto Rico,00907,18.44846851200043,-66.07587941599962
34968,Banco Popular de Puerto Rico,0,CAGUAS REGION OFFICE BRANCH,2011-06-30,Limited Service Administrative Office,20 Muqoz Rivera Esq. Ruiz Belvis 2nd Floor,Caguas,Caguas,Puerto Rico,725,18.21063869262161,-66.02804425024192
34968,Banco Popular de Puerto Rico,0,PONCE REGION BRANCH,2011-06-30,Limited Service Administrative Office,Edif Ponce Plaza 2nd Floor Plaza Degetau Esq. Comercio,Ponce,Ponce,Puerto Rico,731,18.103861405479503,-66.62569139144455
34968,Banco Popular de Puerto Rico,0,WALMART MANATI BRANCH,2011-06-30,Full Service Brick and Mortar Office,Monte Real Shopping  Bo. Coto Norte Carr Pr2 Km 45.8,Manati,Manati,Puerto Rico,674,18.420431106910087,-66.49034913780241
34968,Banco Popular de Puerto Rico,0,ECONO MANATI BRANCH,2011-06-30,Full Service Brick and Mortar Office,Carr 670 Km 1.1 Cordova Davila,Manati,Manati,Puerto Rico,674,18.426701791574505,-66.4912340432473
34968,Banco Popular de Puerto Rico,0,WESTERN REGION OFFICE BRANCH,2011-06-30,Limited Service Administrative Office,1 Suau St. 2nd Floor Parque Suau,Mayaguez,Mayaguez,Puerto Rico,680,18.204311163464336,-67.14573811727062
34968,Banco Popular de Puerto Rico,0,WALMART CAGUAS BRANCH,2011-06-30,Full Service Brick and Mortar Office,Ave. Rafael Cordero Int. Pr 30,Caguas,Caguas,Puerto Rico,725,18.21063869262161,-66.02804425024192
34968,Banco Popular de Puerto Rico,0,PENUELAS BRANCH,1959-08-06,Full Service Brick and Mortar Office,318 Calle Munoz Rivera,Penuelas,Penuelas,Puerto Rico,624,18.05530298410696,-66.72163797855454
34968,Banco Popular de Puerto Rico,0,MUNOZ RIVERA BRANCH,1942-10-01,Full Service Brick and Mortar Office,1125 Ave Munoz Rivera,San Juan,San Juan,Puerto Rico,925,18.399413576155823,-66.05596610582077
34968,Banco Popular de Puerto Rico,0,REPARTO METROPOLITANO BRANCH,1958-12-15,Full Service Brick and Mortar Office,1008 Ave Americo Miranda,San Juan,San Juan,Puerto Rico,921,18.40001197922976,-66.07525200865942
34968,Banco Popular de Puerto Rico,0,SANTA ISABEL BRANCH,1959-07-21,Full Service Brick and Mortar Office,Carr 153 Int Carr 542 Km 57.7,Santa Isabel,Santa Isabel,Puerto Rico,757,17.96818002100042,-66.40607999899964
34968,Banco Popular de Puerto Rico,0,SUNSHINE MALL BRANCH,2011-12-03,Full Service Brick and Mortar Office,State Cane Suite 201-203,St. Croix,Frederiksted,Virgin Islands Of The U.S.,00840,17.725089999999966,-64.85435999999999
34968,Banco Popular de Puerto Rico,0,STOP 26 BRANCH,1950-11-13,Full Service Brick and Mortar Office,1900 Ponce De Leon Ave And Sagrado C,San Juan,San Juan,Puerto Rico,910,18.438269249783666,-66.05972712796456
34968,Banco Popular de Puerto Rico,0,VILLALBA BRANCH,1959-07-13,Full Service Brick and Mortar Office,69 Calle Munoz Rivera,Villalba,Villalba,Puerto Rico,766,18.13001398841385,-66.49263399024152
34968,Banco Popular de Puerto Rico,0,RALPH FOOD WAREHOUSE BRANCH,1997-08-08,Full Service Brick and Mortar Office,"Carr. Estatal #198, Urb. Industrial Juncos",Juncos,Juncos,Puerto Rico,777,18.223468,-65.908908
34968,Banco Popular de Puerto Rico,0,YAUCO PLAZA BRANCH,1911-01-01,Full Service Brick and Mortar Office,Betances And Mattei Lluberas Street,Yauco,Yauco,Puerto Rico,698,18.035659,-66.849117
34968,Banco Popular de Puerto Rico,0,ARECIBO AEROPUERTO,2006-01-10,Full Service Brick and Mortar Office,"Carretera 2, Bo. Santans",Arecibo,Arecibo,Puerto Rico,612,18.406496,-66.674989
34968,Banco Popular de Puerto Rico,0,CAMPO RICO BRANCH,1968-09-16,Full Service Brick and Mortar Office,Avenue Campo Rico And Expressway Loiza,San Juan,Carolina,Puerto Rico,982,18.414865563000436,-65.99394307899962
34968,Banco Popular de Puerto Rico,0,DORAL BANK BRANCH,1981-10-16,Full Service Brick and Mortar Office,1451 Ave Fd Roosevelt,San Juan,San Juan,Puerto Rico,920,18.413467993221005,-66.09730001822919
34968,Banco Popular de Puerto Rico,0,LA Rambla Shopping Center Branch,1968-12-30,Full Service Brick and Mortar Office,80 Avenue Tito Castro Street 14,Ponce,Ponce,Puerto Rico,731,18.040718411196067,-66.5801114436049
34968,Banco Popular de Puerto Rico,0,PATILLAS BRANCH,1969-10-27,Full Service Brick and Mortar Office,33 Luis Munoz Rivera & Iglesias Streets,Patillas,Patillas,Puerto Rico,723,18.031849,-66.012175
34968,Banco Popular de Puerto Rico,0,AIBONITO BRANCH,1920-10-30,Full Service Brick and Mortar Office,"Pr Carr. #14, Km.51.3, Bo, El Roble",Aibonito,Aibonito,Puerto Rico,705,18.131119,-66.264343
34968,Banco Popular de Puerto Rico,0,ARROYO BRANCH,1943-04-05,Full Service Brick and Mortar Office,Road 753 And State Road 3,Arroyo,Arroyo,Puerto Rico,714,17.998623,-66.05633
34968,Banco Popular de Puerto Rico,0,BARRANQUITAS BRANCH,1958-09-02,Full Service Brick and Mortar Office,Centro Comercial San Cristobal Carr. 156 Kr.7.1,Barranquitas,Barranquitas,Puerto Rico,794,18.186613000000023,-66.30298859999999
34968,Banco Popular de Puerto Rico,0,DORADO BRANCH,2005-11-10,Full Service Brick and Mortar Office,Plaza Dorado Rd693 Km 8.5 Higuillar,Dorado,Dorado,Puerto Rico,646,18.45907816500045,-66.26152371199964
34968,Banco Popular de Puerto Rico,0,MAYAGUEZ VIGO BRANCH,1917-04-15,Full Service Brick and Mortar Office,15 Calle Mendez Vigo W,Mayaguez,Mayaguez,Puerto Rico,680,18.202033018787404,-67.14188003313815
34968,Banco Popular de Puerto Rico,0,CENTRO DEL SUR MALL BRANCH,1962-06-25,Full Service Brick and Mortar Office,Centro Del Sur Shopping Center,Ponce,Ponce,Puerto Rico,731,18.103866,-66.625687
34968,Banco Popular de Puerto Rico,0,AVE. 65 INF. SHOPPING CENTER BRANCH,1958-12-15,Full Service Brick and Mortar Office,65th Infantry Reg Avenue,San Juan,San Juan,Puerto Rico,928,0.0,0.0
34968,Banco Popular de Puerto Rico,0,SALINAS BRANCH,1957-03-11,Full Service Brick and Mortar Office,State Road 3 And Munoz Rivera Street,Salinas,Salinas,Puerto Rico,751,18.015128,-66.25924
34968,Banco Popular de Puerto Rico,0,SAN PATRICIO GALLERY BRANCH,1967-10-13,Full Service Brick and Mortar Office,Glz Giusti Ave. Bloque B 9-10,Guaynabo,Guaynabo,Puerto Rico,968,18.405289742327795,-66.10163550077772
34968,Banco Popular de Puerto Rico,0,WALMART CAYEY BRANCH,2011-06-30,Full Service Brick and Mortar Office,Carr 1 Km 54.9 Bo. Montellano,Cayey,Cayey,Puerto Rico,736,18.10295943223207,-66.14944216392468
34968,Banco Popular de Puerto Rico,0,LAJAS BRANCH,1997-09-15,Full Service Brick and Mortar Office,Calle 65 Inf. #34,Lajas,Lajas,Puerto Rico,667,18.012551,-67.040329
34968,Banco Popular de Puerto Rico,0,ANASCO BRANCH,1997-10-15,Full Service Brick and Mortar Office,"Carr. Estatal #2, Km. 143.3 Bo. Caracol",Anasco,Anasco,Puerto Rico,610,18.28811,-67.120547
34968,Banco Popular de Puerto Rico,0,STOP 22 BRANCH,1949-05-22,Full Service Brick and Mortar Office,1500 Ponce De Leon Avenue,San Juan,San Juan,Puerto Rico,909,18.444285,-66.071209
34968,Banco Popular de Puerto Rico,0,BARRIO OBERO BRANCH,1953-10-15,Full Service Brick and Mortar Office,2250 Ave Borinquen,San Juan,San Juan,Puerto Rico,915,18.43517800254523,-66.04798802456258
34968,Banco Popular de Puerto Rico,0,TOA ALTA BRANCH,1958-07-21,Full Service Cyber Office,Carr 165 Km 11 5,Toa Alta,Toa Alta,Puerto Rico,953,18.38864157372304,-66.25342193805054
34968,Banco Popular de Puerto Rico,0,VEGA ALTA BRANCH,1958-07-15,Full Service Brick and Mortar Office,Plaza Del Caribe Mall State Roud #2,Vega Alta,Vega Alta,Puerto Rico,692,18.409141,-66.337296
34968,Banco Popular de Puerto Rico,0,VEGA BAJA BRANCH,1953-12-14,Full Service Brick and Mortar Office,State Road #2 And Padilla St,Vega Baja,Vega Baja,Puerto Rico,693,18.428318,-66.398035
34968,Banco Popular de Puerto Rico,0,CAYEY MONTELLANO,1966-05-20,Full Service Brick and Mortar Office,State Rd #1 Km 56 Hm 6 Bo Montellano,Cayey,Cayey,Puerto Rico,736,18.102958,-66.14944
34968,Banco Popular de Puerto Rico,0,GUAYAMA MALL BRANCH,1967-08-26,Full Service Brick and Mortar Office,Guyama Mall State Road #3,Guayama,Guayama,Puerto Rico,784,17.991141,-66.133309
34968,Banco Popular de Puerto Rico,0,PLAZA DEL OESTE BRANCH,1967-12-11,Full Service Brick and Mortar Office,Plz Del Oeste Sc Casto Perez Ave St 2,San German,San German,Puerto Rico,683,18.111057937873568,-67.03840544095829
34968,Banco Popular de Puerto Rico,0,OROCOVIS BRANCH,1968-09-13,Full Service Brick and Mortar Office,11 Cuatro De Julio Street,Orocovis,Orocovis,Puerto Rico,720,18.214904,-66.433999
34968,Banco Popular de Puerto Rico,0,SAN ALFONSO BRANCH,1968-09-30,Full Service Brick and Mortar Office,Insular Road 1 & Federico Degetau St,Caguas,Caguas,Puerto Rico,725,18.210621,-66.028075
34968,Banco Popular de Puerto Rico,0,SAN SEBASTIAN BRANCH,1969-12-10,Full Service Brick and Mortar Office,Guatemala Ward Pr 111 Int. 446,San Sebastian,San Sebastian,Puerto Rico,685,18.328783,-66.971279
34968,Banco Popular de Puerto Rico,0,TRUJILLO ALTO MALL BRANCH,1971-03-30,Full Service Brick and Mortar Office,"Road No. 181, Km. 5, Hm. 9",Trujillo Alto,Trujillo Alto,Puerto Rico,976,18.336122,-65.998814
34968,Banco Popular de Puerto Rico,0,BARBOSA BRANCH,1971-05-12,Full Service Brick and Mortar Office,Barbosa Avenue #618 & Mayaguez Street,San Juan,San Juan,Puerto Rico,917,18.423278,-66.047561
34968,Banco Popular de Puerto Rico,0,LOMAS VERDES BRANCH,1973-12-03,Full Service Brick and Mortar Office,Lomas Verdes Avenue Ia-100 Royal Pal,Bayamon,Bayamon,Puerto Rico,956,18.32206,-66.169995
34968,Banco Popular de Puerto Rico,0,UTUADO BRANCH,1975-06-09,Full Service Brick and Mortar Office,59 Calle Dr Cueto,Utuado,Utuado,Puerto Rico,641,18.265855008860058,-66.701535995445
34968,Banco Popular de Puerto Rico,0,FLORIDA BRANCH,1975-08-25,Full Service Brick and Mortar Office,225 Munoz Rivera Street,Florida,Florida,Puerto Rico,650,18.361933,-66.560307
34968,Banco Popular de Puerto Rico,0,CUPEY BRANCH,1975-12-22,Full Service Brick and Mortar Office,State  Road 176,San Juan,San Juan,Puerto Rico,928,18.377713425783444,-66.05484614746132
34968,Banco Popular de Puerto Rico,0,YAUCO BRANCH,1976-04-20,Full Service Brick and Mortar Office,Carr 128 Lote 663,Yauco,Yauco,Puerto Rico,698,18.113366708726712,-66.86236103154502
34968,Banco Popular de Puerto Rico,0,AGUADILLA SUR BRANCH,1986-03-02,Full Service Brick and Mortar Office,"Carr. 2, Km. 5.6, Bo. Victoria",Aguadilla,Aguadilla,Puerto Rico,603,18.456402,-67.121938
34968,Banco Popular de Puerto Rico,0,HORMIGUEROS BRANCH,1986-04-21,Full Service Brick and Mortar Office,12 Mateo Fajardo 14,Hormigueros,Hormigueros,Puerto Rico,660,18.139435,-67.127459
34968,Banco Popular de Puerto Rico,0,LEVITTOWN BRANCH,1985-05-25,Full Service Brick and Mortar Office,Avenue Los Dominicos Esq Rosa Tejas,Toa Baja,Toa Baja,Puerto Rico,949,18.431209,-66.216155
34968,Banco Popular de Puerto Rico,0,ARECIBO HIGHWAY BRANCH,1984-12-03,Full Service Brick and Mortar Office,"Road #2, Km. 80.4",Arecibo,Arecibo,Puerto Rico,612,18.406496,-66.674989
34968,Banco Popular de Puerto Rico,0,Valencia Park Branch,1983-12-19,Full Service Brick and Mortar Office,Carr. 165 Lote 1,Guaynabo,Guaynabo,Puerto Rico,965,18.415175451996998,-66.10863838436596
34968,Banco Popular de Puerto Rico,0,SUNNY ISLES BRANCH,1983-05-31,Full Service Brick and Mortar Office,Sunny Isles Shopping Center,St. Croix,Christiansted,Virgin Islands Of The U.S.,820,17.734053,-64.732359
34968,Banco Popular de Puerto Rico,0,HIBISCUS ALLEY BRANCH,1982-12-20,Full Service Brick and Mortar Office,34-35 Drinningens Gade,St. Thomas,Charlotte Amalie,Virgin Islands Of The U.S.,801,18.34124200021813,-64.93405099975382
34968,Banco Popular de Puerto Rico,0,ORANGE GROVE  BRANCH,1981-08-17,Full Service Brick and Mortar Office,3009 Orange Grove Shopping Center,St. Croix,Christiansted,Virgin Islands Of The U.S.,822,17.746005,-64.704105
34968,Banco Popular de Puerto Rico,0,CONDADITO BRANCH,1979-12-24,Full Service Brick and Mortar Office,Amapola #14 Urb Condado,Caguas,Caguas,Puerto Rico,725,18.210621,-66.028075
34968,Banco Popular de Puerto Rico,0,SAN LORENZO BRANCH,1958-04-28,Full Service Retail Office,Carretera 183 Km 10.3 Bo. Hato,San Lorenzo,San Lorenzo,Puerto Rico,754,18.18371706500045,-65.96697108899963
34968,Banco Popular de Puerto Rico,0,SAN JUAN BRANCH,1965-11-22,Full Service Brick and Mortar Office,206 Calle De Tetuan,San Juan,San Juan,Puerto Rico,901,18.46431001949325,-66.11532203206575
34968,Banco Popular de Puerto Rico,0,LOIZA STREET BRANCH,1959-01-02,Full Service Brick and Mortar Office,1812 Calle Loiza,San Juan,San Juan,Puerto Rico,911,18.45133998824812,-66.05906797855118
34968,Banco Popular de Puerto Rico,0,MIRAMAR BRANCH,1954-08-05,Full Service Brick and Mortar Office,701 Ave Ponce De Leon,San Juan,San Juan,Puerto Rico,907,18.45616498890155,-66.08341698818067
34968,Banco Popular de Puerto Rico,0,SUPERMAX DE DIEGO BRANCH,1998-04-17,Full Service Retail Office,114  Avenue De Diego,San Juan,San Juan,Puerto Rico,907,18.45129968900045,-66.06469014199962
34968,Banco Popular de Puerto Rico,0,120 BROADWAY BRANCH,1998-12-16,Limited Service Loan Production Office,120 Broadway,New York,New York City,New York,10006,40.708445,-74.011147
34968,Banco Popular de Puerto Rico,0,AGUADA BRANCH,1958-07-08,Full Service Brick and Mortar Office,"Avenida Nativo Alers, Desvio Sur",Aguada,Aguada,Puerto Rico,602,18.360299,-67.174937
34968,Banco Popular de Puerto Rico,0,AGUAS BUENAS BRANCH,1958-05-13,Full Service Brick and Mortar Office,20 Calle Munoz Rivera,Aguas Buenas,Aguas Buenas,Puerto Rico,703,18.256487980604405,-66.10321102016755
34968,Banco Popular de Puerto Rico,0,RAMEY AIR FORCE BASE BRANCH,1942-03-30,Full Service Brick and Mortar Office,17 West Parade-Punta Borinquen,Aguadilla,Aguadilla,Puerto Rico,604,18.423537,-67.153826
34968,Banco Popular de Puerto Rico,0,BARCELONETA PRIME OUTLETS BRANCH,1958-08-05,Full Service Brick and Mortar Office,State Road #2 Km 54.8 Manati Abajo,Barceloneta,Barceloneta,Puerto Rico,617,18.43436,-66.560058
34968,Banco Popular de Puerto Rico,0,BAYAMON POPULAR CENTER BRANCH,1958-06-09,Full Service Brick and Mortar Office,Dr. L Rodriguez - Flamboyan Gardens,Bayamon,Bayamon,Puerto Rico,959,18.38927,-66.158212
34968,Banco Popular de Puerto Rico,0,CAGUAS PUEBLO BRANCH,1936-01-02,Full Service Brick and Mortar Office,Munoz Rivera #20,Caguas,Caguas,Puerto Rico,725,18.210621,-66.028075
34968,Banco Popular de Puerto Rico,0,CAMUY BRANCH,1964-09-10,Full Service Brick and Mortar Office,160 Ave Munoz Rivera Oeste,Camuy,Camuy,Puerto Rico,627,18.48419499512957,-66.84812500460451
34968,Banco Popular de Puerto Rico,0,CIALES BRANCH,1958-07-31,Full Service Brick and Mortar Office,46a Calle Palmer,Ciales,Ciales,Puerto Rico,638,18.334193000725563,-66.46868303719381
34968,Banco Popular de Puerto Rico,0,CIDRA BRANCH,1958-05-06,Full Service Brick and Mortar Office,60 Barcelo Street,Cidra,Cidra,Puerto Rico,739,18.173724,-66.160984
34968,Banco Popular de Puerto Rico,0,COAMO BRANCH,1956-01-30,Full Service Brick and Mortar Office,7 Calle Mario Braschi,Coamo,Coamo,Puerto Rico,769,18.08103500776041,-66.35695503389321
34968,Banco Popular de Puerto Rico,0,COMERIO BRANCH,1958-05-26,Full Service Brick and Mortar Office,57 Calle Georgetti,Comerio,Comerio,Puerto Rico,782,18.21900901301717,-66.2254149775139
34968,Banco Popular de Puerto Rico,0,Plaza Del Caribe Branch,1996-12-06,Full Service Brick and Mortar Office,2050 Ponce Bypass Plaza Del Caribe Shopping Mall First Level,Ponce,Ponce,Puerto Rico,716,17.995460000000037,-66.61227999999994
34968,Banco Popular de Puerto Rico,0,COROZAL BRANCH,1958-05-23,Full Service Brick and Mortar Office,Corozal Shopping,Corozal,Corozal,Puerto Rico,783,18.304404,-66.327935
34968,Banco Popular de Puerto Rico,0,GURABO BRANCH,1958-05-12,Full Service Brick and Mortar Office,Andres Arus Rivera #118,Gurabo,Gurabo,Puerto Rico,778,18.266389,-65.979256
34968,Banco Popular de Puerto Rico,0,HATILLO BRANCH,1964-09-15,Full Service Brick and Mortar Office,"Carr. #2,   Km.  86.6,  Bo. Pueblo",Hatillo,Hatillo,Puerto Rico,659,18.410454,-66.796413
34968,Banco Popular de Puerto Rico,0,HATO REY BRANCH,1954-06-07,Limited Service Facility Office,526 Ave Ponce De Leon,San Juan,San Juan,Puerto Rico,918,18.415794013261703,-66.05552603772632
34968,Banco Popular de Puerto Rico,0,Manati Popular Center Branch,1942-08-10,Full Service Brick and Mortar Office,Monte Real Shopping Center State Rd 2 Km 45.6,Manati,Manati,Puerto Rico,674,18.43971101960153,-66.4572770271717
34968,Banco Popular de Puerto Rico,0,MOCA BRANCH,1958-06-30,Full Service Brick and Mortar Office,108 Jose Calazan La Salle Street,Moca,Moca,Puerto Rico,676,18.377971,-67.080847
34968,Banco Popular de Puerto Rico,0,MOROVIS BRANCH,1958-08-01,Full Service Brick and Mortar Office,"155 Carr , #6623 Int. Carr",Morovis,Morovis,Puerto Rico,687,18.317075,-66.420424
34968,Banco Popular de Puerto Rico,0,PONCE BRANCH,1950-10-16,Full Service Brick and Mortar Office,Ponce Plaza,Ponce,Ponce,Puerto Rico,731,18.103866,-66.625687
34968,Banco Popular de Puerto Rico,0,PUERTO NUEVO BRANCH,1956-09-01,Full Service Brick and Mortar Office,301 Ave De Diego,San Juan,San Juan,Puerto Rico,920,18.41573658357165,-66.0889879235685
34968,Banco Popular de Puerto Rico,0,RINCON BRANCH,1959-12-08,Full Service Brick and Mortar Office,2 Calle Comercio,Rincon,Rincon,Puerto Rico,677,18.33914301746485,-67.25097502919425
34968,Banco Popular de Puerto Rico,0,PLAZA DEL MERCADO BRANCH,1947-10-27,Full Service Brick and Mortar Office,155 Calle De Diego,San Juan,San Juan,Puerto Rico,925,18.39859099518442,-66.04713600410481
34968,Banco Popular de Puerto Rico,0,U.P.R.  BRANCH,1951-03-26,Full Service Brick and Mortar Office,University Of Puerto Rico,San Juan,San Juan,Puerto Rico,926,18.347484,-66.059463
34968,Banco Popular de Puerto Rico,0,YABUCOA PANORAMICA BRANCH,2003-01-02,Full Service Brick and Mortar Office,"Pr Carretera 901, Km. 1.6, Cario Juan Martin",Yabucoa,Yabucoa,Puerto Rico,767,18.070693,-65.896658
34968,Banco Popular de Puerto Rico,0,SAN JOSE BRANCH,1961-05-08,Full Service Brick and Mortar Office,1565 Calle Alda,San Juan,San Juan,Puerto Rico,926,18.38351199328132,-66.06710597223933
34968,Banco Popular de Puerto Rico,0,BUCHANAN BRANCH,1951-11-28,Full Service Brick and Mortar Office,South Health Clinic,Bayamon,Fort Buchanan,Puerto Rico,934,18.41088,-66.119834
34968,Banco Popular de Puerto Rico,0,MAYAGUEZ SUAU BRANCH,1977-05-02,Full Service Brick and Mortar Office,Suau Street,Mayaguez,Mayaguez,Puerto Rico,00680,18.18400902500042,-67.13679046399966
34968,Banco Popular de Puerto Rico,0,CRUCE DAVILA BRANCH,1976-12-06,Full Service Brick and Mortar Office,State Road #2 Km 57.3,Barceloneta,Barceloneta,Puerto Rico,617,18.43436,-66.560058
34968,Banco Popular de Puerto Rico,0,QUEBRADILLAS BRANCH,2011-06-30,Full Service Brick and Mortar Office,108 Calle Honorio Hernandez,Quebradillas,Quebradillas,Puerto Rico,678,18.473889989999066,-66.9380479897084
34968,Banco Popular de Puerto Rico,0,"RALPH FOOD WAREHOUSE, BAIROA BRANCH",2005-01-11,Full Service Retail Office,"Marginal P-1, Calle 10 Bo. Bairoa",Caguas,Caguas,Puerto Rico,725,18.210621,-66.028075
34968,Banco Popular de Puerto Rico,0,OLD SAN JUAN 46 BRANCH,2004-10-22,Full Service Brick and Mortar Office,"454 Comercio Street, Old San Juan",San Juan,San Juan,Puerto Rico,901,18.46616,-66.114733
34968,Banco Popular de Puerto Rico,0,Guaynabo Branch,2002-04-23,Full Service Brick and Mortar Office,Expreso Martinez Nadal Road 20,Guaynabo,Guaynabo,Puerto Rico,965,18.429986000261263,-66.11913998896216
34968,Banco Popular de Puerto Rico,0,Canovanas Outlet Branch,2001-10-29,Full Service Retail Office,Km 18 4 Carr 3,Canovanas,Canovanas,Puerto Rico,729,18.378147051380083,-65.86744585347708
34968,Banco Popular de Puerto Rico,0,Toa Baja Branch,2004-03-16,Full Service Brick and Mortar Office,Pr Road No. 2 Km. 18.6,Toa Baja,Toa Baja,Puerto Rico,951,18.403566867192325,-66.21742095492831
34968,Banco Popular de Puerto Rico,0,PARQUE LUIS MUNOZ MARIN BRANCH,2005-04-18,Full Service Brick and Mortar Office,900 Ave Jesus T Pinero,San Juan,San Juan,Puerto Rico,921,18.40616299696553,-66.07165801621585
34968,Banco Popular de Puerto Rico,0,SANTA ROSA BRANCH,1999-04-26,Full Service Retail Office,Santa Rosa Shopping Center,Bayamon,Bayamon,Puerto Rico,957,18.37242997800047,-66.18751000799966
34968,Banco Popular de Puerto Rico,0,CAROLINA HIGHWAY BRANCH,1978-10-02,Full Service Brick and Mortar Office,Arzuaga Street Corner 65th Infantry,Carolina,Carolina,Puerto Rico,985,18.403366,-65.94616
34968,Banco Popular de Puerto Rico,0,CULEBRA BRANCH,1984-11-23,Full Service Brick and Mortar Office,"Pedro Marquez, Num. 10",Culebra,Culebra,Puerto Rico,775,18.319761,-65.294233
34968,Banco Popular de Puerto Rico,0,COLOBOS SHOPPING CENTER BRANCH,2005-03-21,Full Service Retail Office,Carr 3 Km 15.2,Carolina,Carolina,Puerto Rico,987,18.376373974000444,-65.91327977299966
34968,Banco Popular de Puerto Rico,0,LAS MARIAS BRANCH,1983-12-28,Full Service Brick and Mortar Office,85 Calle Matias Brugman,Las Marias,Las Marias,Puerto Rico,670,18.25193667499565,-66.99005262392521
34968,Banco Popular de Puerto Rico,0,SABANA GRANDE,1999-01-02,Full Service Brick and Mortar Office,8 Camino Real,Sabana Grande,Sabana Grande,Puerto Rico,637,18.311423475869613,-65.96463267729128
34968,Banco Popular de Puerto Rico,0,SENORIAL BRANCH,1988-05-01,Full Service Brick and Mortar Office,Las Cumbres,San Juan,Rio Piedras,Puerto Rico,00926,18.347484,-66.059463
34968,Banco Popular de Puerto Rico,0,CONDADO BRANCH,1981-02-09,Full Service Brick and Mortar Office,1358 Ave Ashford,San Juan,San Juan,Puerto Rico,00907,18.4549810031685,-66.06863600484498
34968,Banco Popular de Puerto Rico,0,PLAZA DEL SOL BRANCH,2000-11-15,Full Service Brick and Mortar Office,Avenue West Main #725,Bayamon,Bayamon,Puerto Rico,961,18.411109,-66.159246
34968,Banco Popular de Puerto Rico,0,LAS PIEDRAS BRANCH,2007-12-01,Full Service Brick and Mortar Office,Carr. 183 Km.21.1 Las Piedras,Las Piedras,Humacao,Puerto Rico,791,18.143425,-65.814923
34968,Banco Popular de Puerto Rico,0,PLAZA LOS PADROS BRANCH,2007-12-03,Full Service Brick and Mortar Office,Carr. Pr 156 Km 56.3 Caguas,Caguas,Caguas,Puerto Rico,725,18.210621,-66.028075
34968,Banco Popular de Puerto Rico,0,UPR MAYAGUEZ BRANCH,1999-08-03,Full Service Brick and Mortar Office,Carr 2 Esq Calle Post 259,Mayaguez,Mayaguez,Puerto Rico,680,18.20971419000045,-67.14400901799962
34968,Banco Popular de Puerto Rico,0,CAGUAS PUEBLO,2000-06-30,Full Service Brick and Mortar Office,#20 Munoz Rivera,Caguas,Caguas,Puerto Rico,725,18.210621,-66.028075
34968,Banco Popular de Puerto Rico,0,GUAYNABO LAS CUMBRES BRANCH,2000-02-22,Full Service Brick and Mortar Office,"Ave. Las Cumbres, Int. Juan Carlos De Borbon",Guaynabo,Guaynabo,Puerto Rico,969,18.329566,-66.113975
34968,Banco Popular de Puerto Rico,0,MARICAO BRANCH,1980-06-23,Full Service Brick and Mortar Office,Zuzuaregui Corner Baldorioty St,Maricao,Maricao,Puerto Rico,606,18.172073,-66.942268
34968,Banco Popular de Puerto Rico,0,CABO ROJO BRANCH,1998-06-15,Full Service Brick and Mortar Office,State Road #100,Cabo Rojo,Cabo Rojo,Puerto Rico,623,18.041807,-67.154121
34968,Banco Popular de Puerto Rico,0,PONCE MONTE TOWN CENTER BRANCH,1999-05-10,Full Service Brick and Mortar Office,Calle No 14 Km 6.0,Ponce,Coto Laurel,Puerto Rico,780,18.024569981742918,-66.53721398047041
34968,Banco Popular de Puerto Rico,0,VIEQUES BRANCH,1957-09-09,Full Service Brick and Mortar Office,115 Calle Munoz Rivera,Vieques,Vieques,Puerto Rico,765,18.14909400797873,-65.44267899610227
34968,Banco Popular de Puerto Rico,0,PLAZA DEL YUNQUE BRANCH,1980-03-08,Full Service Brick and Mortar Office,3 Carr Estatal Km 22.2,Rio Grande,Rio Grande,Puerto Rico,745,18.356672881000463,-65.87248938199963
34968,Banco Popular de Puerto Rico,0,LOIZA BRANCH,1981-03-28,Full Service Brick and Mortar Office,64 Calle San Patricio,Loiza,Loiza,Puerto Rico,772,18.430880014053955,-65.8804849935139
34968,Banco Popular de Puerto Rico,0,JAYUYA BRANCH,1964-04-27,Full Service Brick and Mortar Office,84 Guillermo Esteves Street,Jayuya,Jayuya,Puerto Rico,664,18.210671,-66.588433
34968,Banco Popular de Puerto Rico,0,MAUNABO BRANCH,1978-04-10,Full Service Brick and Mortar Office,1 Calle Santiago Iglesias,Maunabo,Maunabo,Puerto Rico,707,18.007470059000468,-65.89965310399964
34968,Banco Popular de Puerto Rico,0,JUANA DIAZ (COMERCIO STREET) BRANCH,1964-11-09,Full Service Brick and Mortar Office,90 Calle Comercio,Juana Diaz,Juana Diaz,Puerto Rico,795,18.05242400991378,-66.5054970264926
34968,Banco Popular de Puerto Rico,0,PALMAS DEL MAR BRANCH,1993-01-19,Full Service Brick and Mortar Office,"Palmas Inn Road, Palmanova Plaza",Humacao,Humacao,Puerto Rico,791,18.083620206000436,-65.80079230399963
34968,Banco Popular de Puerto Rico,0,NAGUABO BRANCH,1957-11-04,Full Service Brick and Mortar Office,19 Calle Juan R Garzot,Naguabo,Naguabo,Puerto Rico,718,18.20341953400043,-65.73727968499963
34968,Banco Popular de Puerto Rico,0,Rexville Branch,2006-09-18,Full Service Brick and Mortar Office,"Rexville Town Center, Carr. 167 Km 17.6",Bayamon,Bayamon,Puerto Rico,956,18.358372989277527,-66.18733096224597
34968,Banco Popular de Puerto Rico,0,AIRPORT BRANCH,1955-05-24,Full Service Brick and Mortar Office,"Luis Munoz Marin Terminal B, Suite 1a",Carolina,San Juan,Puerto Rico,913,18.44104465500044,-66.07241468899963
34968,Banco Popular de Puerto Rico,0,ADJUNTAS BRANCH,1960-11-21,Full Service Brick and Mortar Office,19 Calle San Joaquin,Adjuntas,Adjuntas,Puerto Rico,601,18.16240501504504,-66.72364200778475
34968,Banco Popular de Puerto Rico,0,LARES BRANCH,1952-02-11,Full Service Brick and Mortar Office,562 Patriotas Avenue,Lares,Lares,Puerto Rico,669,18.293099997000468,-66.85914998499965
34968,Banco Popular de Puerto Rico,0,GUAYANILLA BRANCH,1959-07-31,Full Service Brick and Mortar Office,38-40 Calle Munoz Rivera,Guayanilla,Guayanilla,Puerto Rico,656,17.992162951000466,-66.81398181599963
34968,Banco Popular de Puerto Rico,0,XTRA PLAZA FAJARDO BRANCH,2011-06-30,Full Service Brick and Mortar Office,Carr 3 Km 42,Fajardo,Fajardo,Puerto Rico,738,18.349312360000454,-65.67852086599964
34968,Banco Popular de Puerto Rico,0,CEIBA BRANCH,1957-11-26,Full Service Brick and Mortar Office,248 Ave Lauro Pinero,Ceiba,Ceiba,Puerto Rico,735,18.26505001087908,-65.64782900998733
34968,Banco Popular de Puerto Rico,0,FAJARDO BRANCH,1946-02-15,Full Service Brick and Mortar Office,Avenue Garrido Morales Final,Fajardo,Fajardo,Puerto Rico,738,18.32571466100046,-65.65484053499966
34968,Banco Popular de Puerto Rico,0,RIO GRANDE SHOPPING CENTER BRANCH,1958-04-30,Full Service Brick and Mortar Office,99 Calle Pimentel,Rio Grande,Rio Grande,Puerto Rico,745,18.379959994172665,-65.83382696184974
34968,Banco Popular de Puerto Rico,0,LUQUILLO BRANCH,1957-11-26,Full Service Brick and Mortar Office,Carr 193 Esq Calle B,Luquillo,Luquillo,Puerto Rico,773,18.36579295300044,-65.76656555399967
34968,Banco Popular de Puerto Rico,0,AGUADILLA MALL BRANCH,1995-01-17,Full Service Brick and Mortar Office,Aguadilla Mall,Aguadilla,Aguadilla,Puerto Rico,603,18.456402,-67.121938
34968,Banco Popular de Puerto Rico,0,CAGUAS BRANCH,1997-12-31,Full Service Brick and Mortar Office,Plaza Centro Ii 30a St. Degetau Ave.,Caguas,Caguas,Puerto Rico,725,18.210621,-66.028075
3510,"Bank of America, National Association",0,19TH AVENUE AND THUNDERBIRD BRANCH,1973-12-17,Full Service Brick and Mortar Office,1910 W Thunderbird Rd,Maricopa,Phoenix,Arizona,85023,33.61154551785977,-112.10019768779176
3510,"Bank of America, National Association",0,BELL ROAD AND BOSWELL BLVD. BRANCH,1973-10-01,Full Service Brick and Mortar Office,10099 W Bell Rd,Maricopa,Sun City,Arizona,85351,33.63768356090304,-112.27732482006648
3510,"Bank of America, National Association",0,CAMPBELL ADELAIDE BRANCH,1973-06-25,Full Service Brick and Mortar Office,2885 N Campbell Ave,Pima,Tucson,Arizona,85719,32.25914484460799,-110.9443890633734
3510,"Bank of America, National Association",0,TEMPE MAIN BRANCH,1954-02-08,Full Service Brick and Mortar Office,699 S Mill Ave,Maricopa,Tempe,Arizona,85281,33.423644538700415,-111.93958935883808
3510,"Bank of America, National Association",0,WILMOT AND BROADWAY BRANCH,1957-09-23,Full Service Brick and Mortar Office,6245 E Broadway Blvd,Pima,Tucson,Arizona,85711,32.22204230829237,-110.859289947366
3510,"Bank of America, National Association",0,RURAL AND BASELINE BRANCH,1973-01-29,Full Service Brick and Mortar Office,906 E Baseline Rd,Maricopa,Tempe,Arizona,85283,33.37873174500592,-111.92816532772414
3510,"Bank of America, National Association",0,43RD AVENUE AND DUNLAP BRANCH,1972-10-02,Full Service Brick and Mortar Office,4303 W Olive Ave,Maricopa,Glendale,Arizona,85302,33.56709599195379,-112.15214897513025
3510,"Bank of America, National Association",0,BROADWAY/CAMINO SECO BRANCH,1972-08-07,Full Service Brick and Mortar Office,8690 E Broadway Blvd,Pima,Tucson,Arizona,85710,32.22048113691643,-110.8073256680776
3510,"Bank of America, National Association",0,CASAS ADOBES BRANCH,1960-02-29,Full Service Brick and Mortar Office,7130 N Oracle Rd,Pima,Tucson,Arizona,85704,32.33656605348763,-110.97681453962662
3510,"Bank of America, National Association",0,BEL AIR BRANCH,1967-12-04,Full Service Brick and Mortar Office,5610 N Swan Rd,Pima,Tucson,Arizona,85718,32.30881964895353,-110.89206511661972
3510,"Bank of America, National Association",0,TANQUE VERDE BRANCH,1971-01-04,Full Service Brick and Mortar Office,7077 E Tanque Verde Rd,Pima,Tucson,Arizona,85715,32.251423393493255,-110.84155635481773
3510,"Bank of America, National Association",0,NORTH STONE BRANCH,1948-09-10,Full Service Brick and Mortar Office,902 N Stone Ave,Pima,Tucson,Arizona,85705,32.233261820968835,-110.97137367863738
3510,"Bank of America, National Association",0,LINCOLN AND SCOTTSDALE BRANCH,1971-09-20,Full Service Brick and Mortar Office,6501 N Scottsdale Rd,Maricopa,Scottsdale,Arizona,85250,33.53194023646971,-111.92515924196933
3510,"Bank of America, National Association",0,BRONX PARKCHESTER BRANCH,1968-12-02,Full Service Brick and Mortar Office,65 Metropolitan Oval,Bronx,Bronx,New York,10462,40.837805737200114,-73.86142876644685
3510,"Bank of America, National Association",0,SIERRA VISTA BRANCH,1976-12-13,Full Service Brick and Mortar Office,3148 E Fry Blvd,Cochise,Sierra Vista,Arizona,85635,31.554093557202307,-110.266374652398
3510,"Bank of America, National Association",0,515 NORTH LASALLE BRANCH,1997-01-06,Full Service Brick and Mortar Office,515 N La Salle Dr,Cook,Chicago,Illinois,60654,41.89137798356421,-87.63192497549203
3510,"Bank of America, National Association",0,MOORES LANE BRANCH,1984-11-16,Full Service Brick and Mortar Office,7120 Moores Ln,Williamson,Brentwood,Tennessee,37027,35.967243991776954,-86.80999798086006
3510,"Bank of America, National Association",0,ALEXANDER PLAZA BRANCH,1980-02-12,Full Service Brick and Mortar Office,1211 Murfreesboro Rd,Williamson,Franklin,Tennessee,37064,35.916345010472625,-86.830716033853
3510,"Bank of America, National Association",0,HILLSBORO ROAD BRANCH,1972-11-20,Full Service Brick and Mortar Office,213 5th Ave N,Williamson,Franklin,Tennessee,37064,35.92558601681404,-86.87341101787678
3510,"Bank of America, National Association",0,BRENTWOOD BRANCH,1970-11-30,Full Service Brick and Mortar Office,133 Franklin Rd,Williamson,Brentwood,Tennessee,37027,36.035287988388575,-86.78865296150961
3510,"Bank of America, National Association",0,7TH STREET AND BELL ROAD BRANCH,1987-09-14,Full Service Brick and Mortar Office,605 E Bell Rd,Maricopa,Phoenix,Arizona,85022,33.63979228010392,-112.06618576872452
3510,"Bank of America, National Association",0,40TH STREET AND BROADWAY BRANCH,1987-08-17,Full Service Brick and Mortar Office,3930 E Broadway Rd,Maricopa,Phoenix,Arizona,85040,33.40732451190942,-111.9968774234805
3510,"Bank of America, National Association",0,CASA GRANDE BRANCH,1986-12-08,Full Service Brick and Mortar Office,1691 E Florence Blvd,Pinal,Casa Grande,Arizona,85122,32.87916247867008,-111.71470482447867
3510,"Bank of America, National Association",0,7TH STREET AND HATCHER BRANCH,1975-03-31,Full Service Brick and Mortar Office,9325 N 7th St,Maricopa,Phoenix,Arizona,85020,33.571136530289024,-112.06473603475128
3510,"Bank of America, National Association",0,92ND STREET AND SHEA BRANCH,1985-05-20,Full Service Brick and Mortar Office,9170 E Shea Blvd,Maricopa,Scottsdale,Arizona,85260,33.583455832481135,-111.88347628893492
3510,"Bank of America, National Association",0,59TH AVENUE AND THUNDERBIRD BRANCH,1984-08-27,Full Service Brick and Mortar Office,5831 W Thunderbird Rd,Maricopa,Glendale,Arizona,85306,33.610344852139406,-112.18540082321752
3510,"Bank of America, National Association",0,MIDVALE PARK BRANCH,1983-04-04,Full Service Brick and Mortar Office,1601 W Valencia Rd,Pima,Tucson,Arizona,85746,32.133240863742884,-110.9994197781195
3510,"Bank of America, National Association",0,PARADISE VALLEY/TATUM BRANCH,1980-12-01,Full Service Brick and Mortar Office,13008 N Tatum Blvd,Maricopa,Phoenix,Arizona,85032,33.60448665619106,-111.97849329187464
3510,"Bank of America, National Association",0,16TH STREET AND MORTEN BRANCH,1980-10-06,Full Service Brick and Mortar Office,7579 N 16th St,Maricopa,Phoenix,Arizona,85020,33.54693877210232,-112.04733864033936
3510,"Bank of America, National Association",0,BASELINE AND DOBSON BRANCH,1979-06-11,Full Service Brick and Mortar Office,1961 W Baseline Rd,Maricopa,Mesa,Arizona,85202,33.37835619383415,-111.87696572946244
3510,"Bank of America, National Association",0,GEORGETOWN BRANCH (FRGN),1973-08-07,Full Service Brick and Mortar Office,Main Street,Not Supplied,Georgetown,,00000,0.0,0.0
3510,"Bank of America, National Association",0,SCOTTSDALE-EARLL BRANCH,1960-12-19,Full Service Brick and Mortar Office,3123 N Scottsdale Rd,Maricopa,Scottsdale,Arizona,85251,33.48345411172298,-111.92530081231394
3510,"Bank of America, National Association",0,MCCORMICK RANCH BRANCH,1978-04-10,Full Service Brick and Mortar Office,8075 N Hayden Rd,Maricopa,Scottsdale,Arizona,85258,33.55392936316967,-111.89803666057904
3510,"Bank of America, National Association",0,SUN LAKES BRANCH,1985-01-28,Full Service Brick and Mortar Office,9602 E Riggs Rd,Maricopa,Sun Lakes,Arizona,85248,33.21814869093941,-111.87573503573388
3510,"Bank of America, National Association",0,MARYVALE BRANCH,1963-10-28,Full Service Brick and Mortar Office,5401 W Indian School Rd,Maricopa,Phoenix,Arizona,85031,33.49446730385277,-112.17571880304055
3510,"Bank of America, National Association",0,CHANDLER AND ALMA SCHOOL BRANCH,1961-01-09,Full Service Brick and Mortar Office,198 N Alma School Rd,Maricopa,Chandler,Arizona,85224,33.30504433871482,-111.859646119112
3510,"Bank of America, National Association",0,PARK CENTRAL BRANCH,1959-07-13,Full Service Brick and Mortar Office,3030 N Central Ave,Maricopa,Phoenix,Arizona,85012,33.481911590081594,-112.07430867109184
3510,"Bank of America, National Association",0,CARROLLTOWNE BRANCH,1955-07-01,Full Service Brick and Mortar Office,6400 Ridge Rd,Carroll,Eldersburg,Maryland,21784,39.39728200873233,-76.93411796210991
3510,"Bank of America, National Association",0,SUMMERLIN BRANCH,1978-07-17,Full Service Brick and Mortar Office,1511 Matthew Dr,Lee,Fort Myers,Florida,33907,26.58998482701834,-81.88308637676904
3510,"Bank of America, National Association",0,MURRELLS INLET BRANCH,1975-12-01,Full Service Brick and Mortar Office,3991 Highway 17,Georgetown,Murrells Inlet,South Carolina,29576,33.561185995843815,-79.03903102457478
3510,"Bank of America, National Association",0,OAK PARK BRANCH,1965-03-23,Full Service Brick and Mortar Office,2219 W 28th Ave,Jefferson,Pine Bluff,Arkansas,71603,34.20189217014963,-92.02492228035726
3510,"Bank of America, National Association",0,JAMAICA ESTATES BRANCH,1933-07-21,Full Service Brick and Mortar Office,17557 Hillside Ave,Queens,Jamaica,New York,11432,40.7123269702831,-73.78586984881473
3510,"Bank of America, National Association",0,MERIDIAN BRANCH,1971-09-07,Full Service Brick and Mortar Office,4738 Central Park Dr,Ingham,Okemos,Michigan,48864,42.71814301270905,-84.40886896308925
3510,"Bank of America, National Association",0,DELTA BRANCH,1968-07-08,Full Service Brick and Mortar Office,5507 W Saginaw Hwy,Eaton,Lansing,Michigan,48917,42.74050601420015,-84.62763001426478
3510,"Bank of America, National Association",0,SOUTH POINTE BRANCH,1965-01-25,Full Service Brick and Mortar Office,6100 S Pennsylvania Ave,Ingham,Lansing,Michigan,48911,42.668775991848094,-84.53869701574496
3510,"Bank of America, National Association",0,TURF VALLEY BRANCH,1964-01-03,Full Service Brick and Mortar Office,11125 Resort Rd,Howard,Ellicott City,Maryland,21042,39.29842399866246,-76.89721504081842
3510,"Bank of America, National Association",0,PLAINFIELD BRANCH,1977-07-12,Full Service Brick and Mortar Office,3886 Plainfield Ave Ne,Kent,Grand Rapids,Michigan,49525,43.03336501728435,-85.6220150020076
3510,"Bank of America, National Association",0,CASCADE BRANCH,1976-07-30,Full Service Brick and Mortar Office,6464 28th St Se,Kent,Grand Rapids,Michigan,49546,42.91261200928716,-85.50850299443515
3510,"Bank of America, National Association",0,GOLD BUILDING BRANCH,1967-02-24,Full Service Brick and Mortar Office,2627 E Beltline Ave Se,Kent,Grand Rapids,Michigan,49546,42.91527498183552,-85.58417297228434
3510,"Bank of America, National Association",0,CRYSTAL LAKE BRANCH,1980-12-10,Full Service Brick and Mortar Office,900 W Sample Rd,Broward,Pompano Beach,Florida,33064,26.274346996226512,-80.13626699342218
3510,"Bank of America, National Association",0,LONG ISLAND CITY-JACKSON AVE BRANCH,1964-04-08,Full Service Brick and Mortar Office,2410 Jackson Ave,Queens,Long Island City,New York,11101,40.74609262903505,-73.94457121097696
3510,"Bank of America, National Association",0,MCCAIN BRANCH,1989-02-06,Full Service Brick and Mortar Office,2421 Mccain Blvd,Pulaski,North Little Rock,Arkansas,72116,34.79804083462713,-92.23866237897364
3510,"Bank of America, National Association",0,GEYER SPRINGS BRANCH,1968-05-13,Full Service Brick and Mortar Office,8200 Geyer Springs Rd,Pulaski,Little Rock,Arkansas,72209,34.675310745218454,-92.34445406698828
3510,"Bank of America, National Association",0,LI CITY-36TH AVENUE BRANCH,1976-04-07,Full Service Brick and Mortar Office,3018 36th Ave,Queens,Astoria,New York,11106,40.75658157503074,-73.93001704194118
3510,"Bank of America, National Association",0,BROOKLYN-SHEEPSHEAD BAY BRANCH,1971-03-01,Full Service Brick and Mortar Office,1415 Avenue Z,Kings,Brooklyn,New York,11235,40.58806546525474,-73.95467593053108
3510,"Bank of America, National Association",0,MICHIGAN/PLYMOUTH BRANCH,1976-10-18,Full Service Brick and Mortar Office,1750 Michigan St Ne,Kent,Grand Rapids,Michigan,49503,42.96967298862043,-85.6254799969613
3510,"Bank of America, National Association",0,TOWN N' COUNTRY BRANCH,1962-05-01,Full Service Brick and Mortar Office,6091 Calhoun Memorial Hwy,Pickens,Easley,South Carolina,29640,34.82336901818559,-82.57763803125249
3510,"Bank of America, National Association",0,CLEMSON MAIN BRANCH,1977-09-23,Full Service Brick and Mortar Office,521 College Ave,Pickens,Clemson,South Carolina,29631,34.68994098002554,-82.8348529910831
3510,"Bank of America, National Association",0,HIGHWAY 123 BRANCH,1982-10-18,Full Service Brick and Mortar Office,1313 Sandifer Blvd,Oconee,Seneca,South Carolina,29678,34.69216000507221,-82.98520698351096
3510,"Bank of America, National Association",0,MESA MAIN BRANCH,1955-07-01,Full Service Brick and Mortar Office,63 W Main St,Maricopa,Mesa,Arizona,85201,33.41488758726739,-111.833492988643
3510,"Bank of America, National Association",0,STAPLEY MAIN BRANCH,1955-12-19,Full Service Brick and Mortar Office,1158 E Main St,Maricopa,Mesa,Arizona,85203,33.415317788447865,-111.80576313836768
3510,"Bank of America, National Association",0,GLENDALE BRANCH,1960-02-08,Full Service Brick and Mortar Office,5800 W Glenn Dr,Maricopa,Glendale,Arizona,85301,33.54034933892095,-112.18436171868088
3510,"Bank of America, National Association",0,MILL CREEK COMMONS BRANCH,1981-02-10,Full Service Brick and Mortar Office,5342 Highway 557,York,Clover,South Carolina,29710,35.120547006428495,-81.0890869615083
3510,"Bank of America, National Association",0,EVERGREEN POINT BRANCH,1979-03-28,Full Service Brick and Mortar Office,5704 Buckeystown Pike,Frederick,Frederick,Maryland,21704,39.39063499187614,-77.41012398032943
3510,"Bank of America, National Association",0,HANOVER WASHINGTON STREET BRANCH,1988-12-12,Full Service Brick and Mortar Office,1764 Washington St,Plymouth,Hanover,Massachusetts,02339,42.146253805675656,-70.84563324732969
3510,"Bank of America, National Association",0,HINGHAM BRANCH,1986-12-29,Full Service Brick and Mortar Office,13 Whiting St,Plymouth,Hingham,Massachusetts,02043,42.1752282847535,-70.88614885270881
3510,"Bank of America, National Association",0,MARSHFIELD BRANCH,1981-07-01,Full Service Brick and Mortar Office,934 Plain St,Plymouth,Marshfield,Massachusetts,02050,42.1069446914396,-70.7561035411228
3510,"Bank of America, National Association",0,Foxborough Branch,1968-02-14,Full Service Brick and Mortar Office,16 School St,Norfolk,Foxborough,Massachusetts,02035,42.06421353950361,-71.250773375505
3510,"Bank of America, National Association",0,WEYMOUTH BRANCH,1963-10-15,Full Service Brick and Mortar Office,525 Washington St,Norfolk,Weymouth,Massachusetts,02188,42.20629291711669,-70.95608694989052
3510,"Bank of America, National Association",0,WESTWOOD BRANCH,1951-06-18,Full Service Brick and Mortar Office,693 High St,Norfolk,Westwood,Massachusetts,02090,42.22497944823698,-71.22316288353092
3510,"Bank of America, National Association",0,MEDWAY BRANCH,1962-02-27,Full Service Brick and Mortar Office,108 Main St,Norfolk,Medway,Massachusetts,02053,42.15067270312025,-71.41585336598375
3510,"Bank of America, National Association",0,WELLESLEY HILLS BRANCH,1963-05-27,Full Service Brick and Mortar Office,342 Washington St,Norfolk,Wellesley,Massachusetts,02481,42.30970271970597,-71.27652710828768
3510,"Bank of America, National Association",0,SOUTH BRAINTREE BRANCH,1945-11-19,Full Service Brick and Mortar Office,10 Tremont St,Norfolk,Braintree,Massachusetts,02184,42.20215745372798,-71.00698706275178
3510,"Bank of America, National Association",0,SHARON BRANCH,1952-08-18,Full Service Brick and Mortar Office,15 Post Office Sq,Norfolk,Sharon,Massachusetts,02067,42.12319879425837,-71.17821107207715
3510,"Bank of America, National Association",0,MEDFIELD BRANCH,1951-12-10,Full Service Brick and Mortar Office,478 Main St,Norfolk,Medfield,Massachusetts,02052,42.18638945938386,-71.305407793869
3510,"Bank of America, National Association",0,FRANKLIN BRANCH,1937-07-02,Full Service Brick and Mortar Office,49 Main St,Norfolk,Franklin,Massachusetts,02038,42.08438442185727,-71.39815992275167
3510,"Bank of America, National Association",0,COOLIDGE CORNER BRANCH,1959-07-13,Full Service Brick and Mortar Office,1319 Beacon St,Norfolk,Brookline,Massachusetts,02446,42.34185725093906,-71.12093166034713
3510,"Bank of America, National Association",0,LINWOOD PLAZA BRANCH,1964-01-08,Full Service Brick and Mortar Office,154 Linwood Plz,Bergen,Fort Lee,New Jersey,07024,40.86137799586234,-73.96971599849394
3510,"Bank of America, National Association",0,16TH STREET AND OSBORN ROAD BRANCH,1959-12-21,Full Service Brick and Mortar Office,3334 N 16th St,Maricopa,Phoenix,Arizona,85016,33.48667825268892,-112.0480746552572
3510,"Bank of America, National Association",0,SIX CORNERS BRANCH,1941-06-14,Full Service Brick and Mortar Office,4671 W Irving Park Rd,Cook,Chicago,Illinois,60641,41.95313098465704,-87.74538996058767
3510,"Bank of America, National Association",0,MERCER MALL BRANCH,1972-02-24,Full Service Brick and Mortar Office,3371 Us Highway 1,Mercer,Lawrence Township,New Jersey,08648,40.294967997025225,-74.68445001853837
3510,"Bank of America, National Association",0,DELANCEY AND LUDLOW BRANCH,1922-07-03,Full Service Brick and Mortar Office,92 Delancey St,New York,New York,New York,10002,40.71909862603951,-73.98918883595113
3510,"Bank of America, National Association",0,WHITEHAVEN BRANCH,1966-03-21,Full Service Brick and Mortar Office,4350 Elvis Presley Blvd,Shelby,Memphis,Tennessee,38116,35.03003498307896,-90.0246979901682
3510,"Bank of America, National Association",0,POPLAR AVENUE BRANCH,1963-12-16,Full Service Brick and Mortar Office,2731 Union Avenue Ext,Shelby,Memphis,Tennessee,38112,35.13656599686321,-89.97300100977206
3510,"Bank of America, National Association",0,SUMMER AVENUE BRANCH,1960-09-14,Full Service Brick and Mortar Office,4750 Summer Ave,Shelby,Memphis,Tennessee,38122,35.14896400512613,-89.90244600451665
3510,"Bank of America, National Association",0,PARK AVENUE BRANCH,1957-10-07,Full Service Brick and Mortar Office,3945 Park Ave,Shelby,Memphis,Tennessee,38111,35.10713101602491,-89.93111798070889
3510,"Bank of America, National Association",0,WEST MARTINTOWN ROAD BRANCH,1983-01-03,Full Service Brick and Mortar Office,441 W Martintown Rd,Aiken,North Augusta,South Carolina,29841,33.50964097935224,-81.97252497168842
3510,"Bank of America, National Association",0,COLUMBIA SOUTH BRANCH,1983-07-15,Full Service Brick and Mortar Office,3701 S Providence Rd,Boone,Columbia,Missouri,65203,38.9098559827124,-92.3357349598481
3510,"Bank of America, National Association",0,GRAHAM BRANCH,1968-04-26,Full Service Brick and Mortar Office,141 S Main St,Alamance,Graham,North Carolina,27253,36.06822698193986,-79.40091198282359
3510,"Bank of America, National Association",0,MADISON BRANCH,1992-12-23,Full Service Brick and Mortar Office,117 Main St,Morris,Madison,New Jersey,07940,40.7567519791223,-74.41227202043508
3510,"Bank of America, National Association",0,MORRISTOWN - SOUTH ST. BRANCH,1986-11-03,Full Service Brick and Mortar Office,186 South St,Morris,Morristown,New Jersey,07960,40.791739006895455,-74.47529596950639
3510,"Bank of America, National Association",0,CHATHAM - MAIN BRANCH,1964-07-20,Full Service Brick and Mortar Office,269 Main St,Morris,Chatham,New Jersey,07928,40.74048899148613,-74.38329896628079
3510,"Bank of America, National Association",0,MAPLEWOOD - PARKER/HILTON BRANCH,1970-08-31,Full Service Brick and Mortar Office,1521 Springfield Ave,Essex,Maplewood,New Jersey,07040,40.7227450053779,-74.25330696359896
3510,"Bank of America, National Association",0,HOMESTEAD BRANCH,1972-11-06,Full Service Brick and Mortar Office,5 Homestead Dr,Burlington,Columbus,New Jersey,08022,40.06583321427241,-74.75522885001752
3510,"Bank of America, National Association",0,CHIPMAN ROAD BRANCH,1976-07-19,Full Service Brick and Mortar Office,1801 Nw Chipman Rd,Jackson,Lees Summit,Missouri,64081,38.925718985929024,-94.40859403200848
3510,"Bank of America, National Association",0,MIDTOWN - 3100 MAIN BRANCH,1974-03-18,Full Service Brick and Mortar Office,3100 Main St,Jackson,Kansas City,Missouri,64111,39.07066899774162,-94.58573398859508
3510,"Bank of America, National Association",0,ODESSA BRANCH,1932-03-25,Full Service Brick and Mortar Office,700 N Grant Ave,Ector,Odessa,Texas,79761,31.85065698430438,-102.3707569774104
3510,"Bank of America, National Association",0,NORTHLAKE BRANCH,1965-10-21,Full Service Brick and Mortar Office,4144 Lavista Rd,Dekalb,Tucker,Georgia,30084,33.846802992674895,-84.24940702703289
3510,"Bank of America, National Association",0,ST. BETHLEHEM BRANCH,1978-12-11,Full Service Brick and Mortar Office,2502 Wilma Rudolph Blvd,Montgomery,Clarksville,Tennessee,37040,36.57657492687419,-87.30157851201757
3510,"Bank of America, National Association",0,Ridge Road West Branch,1974-10-11,Full Service Brick and Mortar Office,2824 W Ridge Rd,Monroe,Rochester,New York,14626,0.0,0.0
3510,"Bank of America, National Association",0,LYNN BRANCH,1968-08-30,Full Service Brick and Mortar Office,1 State St,Essex,Lynn,Massachusetts,01901,42.46206698588193,-70.95067978415204
3510,"Bank of America, National Association",0,LYNNFIELD BRANCH,1961-05-01,Full Service Brick and Mortar Office,1 Post Office Sq,Essex,Lynnfield,Massachusetts,01940,42.5147766259102,-71.01343165664628
3510,"Bank of America, National Association",0,STONE MOUNTAIN BRANCH,1980-07-21,Full Service Brick and Mortar Office,5330 Stone Mountain Hwy,Gwinnett,Stone Mountain,Georgia,30087,33.8225250196748,-84.1144719645914
3510,"Bank of America, National Association",0,JIMMY CARTER BOULEVARD BRANCH,1971-10-02,Full Service Brick and Mortar Office,5813 Jimmy Carter Blvd,Gwinnett,Norcross,Georgia,30071,33.9184359944977,-84.20947103025833
3510,"Bank of America, National Association",0,DOWNTOWN WINTER PARK BRANCH,1995-10-31,Full Service Brick and Mortar Office,250 S Park Ave,Orange,Winter Park,Florida,32789,28.59624900789757,-81.35071801084592
3510,"Bank of America, National Association",0,BARTLETT BRANCH,1973-07-18,Full Service Brick and Mortar Office,6186 Stage Rd,Shelby,Bartlett,Tennessee,38134,35.20498198233777,-89.85686898690503
3510,"Bank of America, National Association",0,SHADY GROVE BRANCH,1973-09-24,Full Service Brick and Mortar Office,6060 Poplar Ave,Shelby,Memphis,Tennessee,38119,35.10276500838937,-89.86015796189204
3510,"Bank of America, National Association",0,AIRPARK BRANCH,1974-03-18,Full Service Brick and Mortar Office,3741 Winchester Rd,Shelby,Memphis,Tennessee,38118,35.05143000048186,-89.93861098305257
3510,"Bank of America, National Association",0,ROSS ROAD BRANCH,1995-02-21,Full Service Brick and Mortar Office,6725 Winchester Rd,Shelby,Memphis,Tennessee,38115,35.04893801875829,-89.83923597719485
3510,"Bank of America, National Association",0,DICKERSON ROAD BRANCH,1974-07-08,Full Service Brick and Mortar Office,3034 Dickerson Pike,Davidson,Nashville,Tennessee,37207,36.22769298321926,-86.76154496463087
3510,"Bank of America, National Association",0,NOLENSVILLE ROAD BRANCH,1973-07-02,Full Service Brick and Mortar Office,4661 Nolensville Rd,Davidson,Nashville,Tennessee,37211,36.06851261569286,-86.71956085599523
3510,"Bank of America, National Association",0,BELLEVUE BRANCH,1972-07-12,Full Service Brick and Mortar Office,7043 Highway 70 S,Davidson,Nashville,Tennessee,37221,36.07466101463635,-86.91886800663492
3510,"Bank of America, National Association",0,HERMITAGE BRANCH,1972-03-29,Full Service Brick and Mortar Office,4604 Lebanon Pike,Davidson,Nashville,Tennessee,37214,36.21513648990111,-86.5961196762364
3510,"Bank of America, National Association",0,THOMPSON LANE BRANCH,1967-10-26,Full Service Brick and Mortar Office,645 Thompson Ln,Davidson,Nashville,Tennessee,37204,36.11077100788745,-86.75573697628255
3510,"Bank of America, National Association",0,BELLE MEADE BRANCH,1956-09-18,Full Service Brick and Mortar Office,4405 Harding Road,Davidson,Nashville,Tennessee,37205,36.093413,-86.851772
3510,"Bank of America, National Association",0,SEVENTEENTH AND CHURCH BRANCH,1948-07-20,Full Service Brick and Mortar Office,1634 Church St,Davidson,Nashville,Tennessee,37203,36.15611999582319,-86.79588201772229
3510,"Bank of America, National Association",0,PLUS PARK BRANCH,1948-09-27,Full Service Brick and Mortar Office,837 Murfreesboro Pike,Davidson,Nashville,Tennessee,37217,36.13256797945712,-86.72117302507216
3510,"Bank of America, National Association",0,GREEN HILLS BRANCH,1966-01-10,Full Service Brick and Mortar Office,2031 Richard Jones Rd,Davidson,Nashville,Tennessee,37215,36.10433999267609,-86.81360798273869
3510,"Bank of America, National Association",0,MADISON BRANCH,1956-11-01,Full Service Brick and Mortar Office,969 Gallatin Pike S,Davidson,Madison,Tennessee,37115,36.25120681993874,-86.71812971595102
3510,"Bank of America, National Association",0,DONELSON BRANCH,1948-05-12,Full Service Brick and Mortar Office,2720 Lebanon Pike,Davidson,Nashville,Tennessee,37214,36.16895901792168,-86.66630500306668
3510,"Bank of America, National Association",0,HUNTER'S CREEK BRANCH,1993-11-17,Full Service Brick and Mortar Office,4048 W Town Center Blvd,Orange,Orlando,Florida,32837,28.362841000018108,-81.42600803702418
3510,"Bank of America, National Association",0,BORDEAUX BRANCH,1961-11-07,Full Service Brick and Mortar Office,3219 Clarksville Pike,Davidson,Nashville,Tennessee,37218,36.19419898194923,-86.83272903171961
3510,"Bank of America, National Association",0,CENTRAL PLAZA BRANCH,1951-03-29,Full Service Brick and Mortar Office,2604 Central Park Ave,Westchester,Yonkers,New York,10710,40.98308667145485,-73.8277569560624
3510,"Bank of America, National Association",0,MCLEAN AVENUE BRANCH,1933-12-16,Full Service Brick and Mortar Office,928 Mclean Ave,Westchester,Yonkers,New York,10704,40.904112165283465,-73.86725905065762
3510,"Bank of America, National Association",0,CROSS COUNTY CENTER BRANCH,1954-04-27,Full Service Brick and Mortar Office,851 Kimball Ave,Westchester,Yonkers,New York,10704,40.93029771132085,-73.84791962315508
3510,"Bank of America, National Association",0,WELLESLEY LINDEN ST. BRANCH,1967-03-30,Full Service Brick and Mortar Office,185 Linden St,Norfolk,Wellesley,Massachusetts,02482,42.3001310891938,-71.29087994400919
3510,"Bank of America, National Association",0,RANDOLPH BRANCH,1959-06-01,Full Service Brick and Mortar Office,173 N Main St,Norfolk,Randolph,Massachusetts,02368,42.16569730647174,-71.0429345309003
3510,"Bank of America, National Association",0,SEBRING SQUARE BRANCH,1983-10-12,Full Service Brick and Mortar Office,4215 Sebring Pkwy,Highlands,Sebring,Florida,33870,27.51447199262421,-81.4928940318026
3510,"Bank of America, National Association",0,PLANO BRANCH,1887-07-28,Full Service Brick and Mortar Office,2400 N Central Expy,Collin,Plano,Texas,75074,33.03066801886571,-96.70714397761373
3510,"Bank of America, National Association",0,HADLEY CENTER BRANCH,1986-03-17,Full Service Brick and Mortar Office,5001 Stelton Rd,Middlesex,South Plainfield,New Jersey,07080,40.54830279598034,-74.42927377583248
3510,"Bank of America, National Association",0,RINCON BRANCH,1971-10-04,Full Service Brick and Mortar Office,119 N Columbia Ave,Effingham,Rincon,Georgia,31326,32.29088799203322,-81.23481095826011
3510,"Bank of America, National Association",0,WILLIMANTIC PLAZA BRANCH,1969-06-06,Full Service Brick and Mortar Office,1589 Main St,Windham,Willimantic,Connecticut,06226,41.72297201199595,-72.23699397045979
3510,"Bank of America, National Association",0,BULLS HEAD BRANCH,1956-07-14,Full Service Brick and Mortar Office,14 High Ridge Rd,Fairfield,Stamford,Connecticut,06905,41.07227200226498,-73.54949699414405
3510,"Bank of America, National Association",0,LAMAR PARK BRANCH,1913-01-01,Full Service Brick and Mortar Office,3802 S Alameda St,Nueces,Corpus Christi,Texas,78411,27.744065983101763,-97.3808980348431
3510,"Bank of America, National Association",0,PRIEST LAKE BRANCH,1976-11-29,Full Service Brick and Mortar Office,2669 Murfreesboro Pike,Davidson,Nashville,Tennessee,37217,36.072061996009225,-86.6369400111199
3510,"Bank of America, National Association",0,TUSCAWILLA BRANCH,1992-02-13,Full Service Brick and Mortar Office,1445 Tuskawilla Rd,Seminole,Winter Springs,Florida,32708,28.646650020334235,-81.26660896524163
3510,"Bank of America, National Association",0,ROSEMONT BRANCH,1988-12-29,Full Service Brick and Mortar Office,5655 N Orange Blossom Trl,Orange,Orlando,Florida,32810,28.61031300323565,-81.42706600084298
3510,"Bank of America, National Association",0,MEADOW HILL BRANCH,1965-10-11,Full Service Brick and Mortar Office,1414 Route 300,Orange,Newburgh,New York,12550,41.5217959422254,-74.070340410839
3510,"Bank of America, National Association",0,ULSTER AVENUE BRANCH,1982-05-19,Full Service Brick and Mortar Office,1343 Ulster Ave,Ulster,Kingston,New York,12401,41.97056764828534,-73.9892091201568
3510,"Bank of America, National Association",0,WASHINGTON AVENUE BRANCH,1973-05-31,Full Service Brick and Mortar Office,451 Washington Ave,Ulster,Kingston,New York,12401,41.93661331289289,-74.02624372114718
3510,"Bank of America, National Association",0,NEW PALTZ BRANCH,1969-05-23,Full Service Brick and Mortar Office,1 New Paltz Plz,Ulster,New Paltz,New York,12561,41.74303212262381,-74.07037951707859
3510,"Bank of America, National Association",0,SOUTHOLD BRANCH,1966-11-02,Full Service Brick and Mortar Office,53300 Main Rd,Suffolk,Southold,New York,11971,41.0632607438896,-72.42974647899612
3510,"Bank of America, National Association",0,EAST HAMPTON BRANCH,1964-05-27,Full Service Brick and Mortar Office,14 Newtown Ln,Suffolk,East Hampton,New York,11937,40.96421447627444,-72.18547351294453
3510,"Bank of America, National Association",0,MIDDLETOWN BRANCH,1966-01-29,Full Service Brick and Mortar Office,364 Route 211 E,Orange,Middletown,New York,10940,0.0,0.0
3510,"Bank of America, National Association",0,YORKTOWN HEIGHTS BRANCH,1993-09-01,Full Service Brick and Mortar Office,2 Triangle Ctr,Westchester,Yorktown Heights,New York,10598,41.27818170994436,-73.78239202954917
3510,"Bank of America, National Association",0,CANAL ST AND BROADWAY BRANCH,1991-09-23,Full Service Brick and Mortar Office,277 Canal St,New York,New York,New York,10013,40.71933428324729,-74.00150277372519
3510,"Bank of America, National Association",0,PELHAM PARKWAY BRANCH,1991-04-22,Full Service Brick and Mortar Office,2198 White Plains Rd,Bronx,Bronx,New York,10462,40.85650857112208,-73.86744177614685
3510,"Bank of America, National Association",0,BROADWAY AND 53RD STREET BRANCH,1989-12-11,Full Service Brick and Mortar Office,1680 Broadway,New York,New York,New York,10019,40.76302457636362,-73.98278866614345
3510,"Bank of America, National Association",0,PORT CHESTER BRANCH,1988-05-02,Full Service Brick and Mortar Office,433 Boston Post Rd,Westchester,Port Chester,New York,10573,40.99385070660796,-73.67415056269344
3510,"Bank of America, National Association",0,NASSAU BRANCH FRGN,1969-08-08,Full Service Brick and Mortar Office,Roywest Banking Corporation Limited,Not Supplied,Nassau,,00000,0.0,0.0
3510,"Bank of America, National Association",0,VILLAGE OF THE BRANCH BRANCH,1976-05-17,Full Service Brick and Mortar Office,31 Route 111,Suffolk,Smithtown,New York,11787,40.85537076967552,-73.18702871593975
3510,"Bank of America, National Association",0,MEDFORD BRANCH,1975-09-22,Full Service Brick and Mortar Office,2851 Horseblock Rd,Suffolk,Medford,New York,11763,40.82760902625864,-72.99395425850244
3510,"Bank of America, National Association",0,HAUPPAUGE BRANCH,1975-06-07,Full Service Brick and Mortar Office,190 Motor Pkwy,Suffolk,Hauppauge,New York,11788,40.80671114855837,-73.25613872193394
3510,"Bank of America, National Association",0,CENTRAL ISLIP BRANCH,1974-11-02,Full Service Brick and Mortar Office,185 Wheeler Rd,Suffolk,Central Islip,New York,11722,40.80278807357084,-73.21194191147198
3510,"Bank of America, National Association",0,TARRYTOWN BRANCH,1974-10-25,Full Service Brick and Mortar Office,505 White Plains Rd,Westchester,Tarrytown,New York,10591,41.06391742409389,-73.84136232260678
3510,"Bank of America, National Association",0,PORT JEFFERSON STATION BRANCH,1974-09-23,Full Service Brick and Mortar Office,911 Route 112,Suffolk,Port Jefferson Station,New York,11776,40.925874366682514,-73.0478647765588
3510,"Bank of America, National Association",0,ASTORIA BRANCH,1973-10-15,Full Service Brick and Mortar Office,3181 Steinway St,Queens,Astoria,New York,11103,40.75926881318878,-73.91857859395378
3510,"Bank of America, National Association",0,MOUNT KISCO BRANCH,1973-03-31,Full Service Brick and Mortar Office,35 S Moger Ave,Westchester,Mount Kisco,New York,10549,41.20731162894859,-73.72881641319432
3510,"Bank of America, National Association",0,ISLIP BRANCH,1972-08-07,Full Service Brick and Mortar Office,265 Montauk Hwy,Suffolk,Islip,New York,11751,40.72800620472962,-73.21902467469796
3510,"Bank of America, National Association",0,DEER PARK BRANCH,1972-03-27,Full Service Brick and Mortar Office,1979 Deer Park Ave,Suffolk,Deer Park,New York,11729,40.76555951534098,-73.3302214617516
3510,"Bank of America, National Association",0,VAILS GATE BRANCH,1956-11-13,Full Service Brick and Mortar Office,405 Windsor Hwy,Orange,New Windsor,New York,12553,41.45592021823671,-74.05592437556756
3510,"Bank of America, National Association",0,POUGHKEEPSIE-ARLINGTON BRANCH,1986-08-01,Full Service Brick and Mortar Office,11 Raymond Ave,Dutchess,Poughkeepsie,New York,12603,41.69531236015973,-73.90190791054718
3510,"Bank of America, National Association",0,NIAGARA FALLS BOULEVARD BRANCH,1975-01-13,Full Service Brick and Mortar Office,1188 Niagara Falls Blvd,Erie,Tonawanda,New York,14150,42.986477572930255,-78.82334068362756
3510,"Bank of America, National Association",0,NISKAYUNA BRANCH,1964-02-04,Full Service Brick and Mortar Office,1757 Union St,Schenectady,Schenectady,New York,12309,42.80272676739969,-73.89918882115707
3510,"Bank of America, National Association",0,ST. CLOUD BRANCH,1988-11-01,Full Service Brick and Mortar Office,4300 13th St,Osceola,Saint Cloud,Florida,34769,28.25303299736838,-81.31499802754959
3510,"Bank of America, National Association",0,WICKHAM ROAD BRANCH,1987-09-14,Full Service Brick and Mortar Office,2453 N Wickham Rd,Brevard,Melbourne,Florida,32935,28.14633199858774,-80.67136400410503
3510,"Bank of America, National Association",0,SOUTH 441 BRANCH,1986-07-01,Full Service Brick and Mortar Office,2051 Central Florida Pkwy,Orange,Orlando,Florida,32837,28.40801799130068,-81.40525100818148
3510,"Bank of America, National Association",0,OCOEE BRANCH,1987-05-07,Full Service Brick and Mortar Office,10201 W Colonial Dr,Orange,Ocoee,Florida,34761,28.55227901067225,-81.52906102199529
3510,"Bank of America, National Association",0,MALABAR BRANCH,1986-12-31,Full Service Brick and Mortar Office,1151 Malabar Rd Ne,Brevard,Palm Bay,Florida,32907,27.999067994765497,-80.63630401186472
3510,"Bank of America, National Association",0,VENTURA DOWNS BRANCH,1986-10-14,Full Service Brick and Mortar Office,2000 E Osceola Pkwy,Osceola,Kissimmee,Florida,34743,28.344278018150604,-81.36340502713034
3510,"Bank of America, National Association",0,WILLIAMSBURG BRANCH,1985-06-10,Full Service Brick and Mortar Office,10900 Orangewood Blvd,Orange,Orlando,Florida,32821,28.407905003245872,-81.44696396842923
3510,"Bank of America, National Association",0,PALM BAY BRANCH,1985-05-10,Full Service Brick and Mortar Office,4710 Babcock St Ne,Brevard,Palm Bay,Florida,32905,28.031773007489637,-80.62251703842661
3510,"Bank of America, National Association",0,KIRKMAN BRANCH,1984-10-01,Full Service Brick and Mortar Office,4725 S Kirkman Rd,Orange,Orlando,Florida,32811,28.493432979329228,-81.458245004275
3510,"Bank of America, National Association",0,RESEARCH PARK BRANCH,1984-03-01,Full Service Brick and Mortar Office,11800 Research Pkwy,Orange,Orlando,Florida,32826,28.587306984042428,-81.20700600613235
3510,"Bank of America, National Association",0,Eau Gallie Branch,1983-04-18,Full Service Brick and Mortar Office,202 E Eau Gallie Blvd,Brevard,Indian Harbour Beach,Florida,32937,28.139051980403732,-80.59740401832266
3510,"Bank of America, National Association",0,BAY HILL BRANCH,1990-11-21,Full Service Brick and Mortar Office,7682 Dr Phillips Blvd,Orange,Orlando,Florida,32819,28.452073986852582,-81.48852898808593
3510,"Bank of America, National Association",0,BARNA BRANCH,1983-03-01,Full Service Brick and Mortar Office,2600 Barna Ave,Brevard,Titusville,Florida,32780,28.585298009489332,-80.81929797344809
3510,"Bank of America, National Association",0,WINTER SPRINGS BRANCH,1982-01-25,Full Service Brick and Mortar Office,110 E State Road 434,Seminole,Winter Springs,Florida,32708,28.69929398815114,-81.30513403625467
3510,"Bank of America, National Association",0,GOLDENROD BRANCH,1979-10-15,Full Service Brick and Mortar Office,7605 Aloma Ave,Orange,Winter Park,Florida,32792,28.610659008198724,-81.28510899901627
3510,"Bank of America, National Association",0,69TH STREET BRANCH,1998-07-21,Full Service Brick and Mortar Office,2 S 69th St,Delaware,Upper Darby,Pennsylvania,19082,39.96168629775034,-75.25904535349054
3510,"Bank of America, National Association",0,DOYLESTOWN BRANCH,1990-10-13,Full Service Brick and Mortar Office,73 Old Dublin Pike,Bucks,Doylestown,Pennsylvania,18901,40.324417017551326,-75.13226903748338
3510,"Bank of America, National Association",0,NORTHWOOD BRANCH,1989-07-19,Full Service Brick and Mortar Office,1108 Van Buren Rd,Northampton,Easton,Pennsylvania,18045,40.70835399008746,-75.27452996711924
3510,"Bank of America, National Association",0,MACARTHUR ROAD BRANCH,1988-01-05,Full Service Brick and Mortar Office,2126 Macarthur Rd,Lehigh,Whitehall,Pennsylvania,18052,40.63500399730867,-75.48830898268535
3510,"Bank of America, National Association",0,15TH AND ALLEN STREETS BRANCH,1975-02-08,Full Service Brick and Mortar Office,1443 W Allen St,Lehigh,Allentown,Pennsylvania,18102,40.60685999719746,-75.49112303903844
3510,"Bank of America, National Association",0,MACADA BRANCH,1969-02-17,Full Service Brick and Mortar Office,1107 Butztown Rd,Northampton,Bethlehem,Pennsylvania,18017,40.65487899848023,-75.35639299794863
3510,"Bank of America, National Association",0,SHOPPERS VILLAGE BRANCH,1963-12-09,Full Service Brick and Mortar Office,2356 Catasauqua Rd,Lehigh,Bethlehem,Pennsylvania,18018,40.64274308378601,-75.42668015344852
3510,"Bank of America, National Association",0,BETHLEHEM - SOUTH SIDE BRANCH,1959-04-13,Full Service Brick and Mortar Office,29 E 3rd St,Northampton,Bethlehem,Pennsylvania,18015,40.61226100223709,-75.37737097375904
3510,"Bank of America, National Association",0,ROTTERDAM BRANCH,1955-06-24,Full Service Brick and Mortar Office,1428 Altamont Ave,Schenectady,Schenectady,New York,12303,42.7843258915396,-73.94446853266305
3510,"Bank of America, National Association",0,CURRY FORD ROAD BRANCH,1982-08-16,Full Service Brick and Mortar Office,1700 S Semoran Blvd,Orange,Orlando,Florida,32822,28.52333898121647,-81.31117797517739
3510,"Bank of America, National Association",0,GEORGETOWN BRANCH (FRGN),1974-05-15,Full Service Brick and Mortar Office,West Wind Building,Not Supplied,Georgetown,,00000,0.0,0.0
3510,"Bank of America, National Association",0,HILLSBORO VILLAGE BRANCH,1979-07-02,Full Service Brick and Mortar Office,2121 Blakemore Ave,Davidson,Nashville,Tennessee,37212,36.13753698120711,-86.80261000376316
3510,"Bank of America, National Association",0,SPRINGFIELD MEMORIAL BRANCH,1988-06-13,Full Service Brick and Mortar Office,2021 Memorial Blvd,Robertson,Springfield,Tennessee,37172,36.49425598629483,-86.87900903955055
3510,"Bank of America, National Association",0,LANGLEY PARK BRANCH,1951-12-08,Full Service Brick and Mortar Office,7950 New Hampshire Ave,Prince George'S,Hyattsville,Maryland,20783,38.99041592096464,-76.98786297672794
3510,"Bank of America, National Association",0,GERMANTOWN BRANCH,1958-10-15,Full Service Brick and Mortar Office,19707 Germantown Rd,Montgomery,Germantown,Maryland,20874,39.1787540163746,-77.26649596228567
3510,"Bank of America, National Association",0,Walnut Hill Branch,1960-12-01,Full Service Brick and Mortar Office,16571 S Frederick Ave,Montgomery,Gaithersburg,Maryland,20877,39.127458990145215,-77.18335896599262
3510,"Bank of America, National Association",0,FORESTVILLE BRANCH,1958-09-03,Full Service Brick and Mortar Office,7520 Marlboro Pike,Prince George'S,Forestville,Maryland,20747,38.846476934313074,-76.87558176781776
3510,"Bank of America, National Association",0,COLLEGE PARK BRANCH,1946-11-01,Full Service Brick and Mortar Office,7370 Baltimore Ave,Prince George'S,College Park,Maryland,20740,38.98065473371216,-76.93821528783916
3510,"Bank of America, National Association",0,KENILWORTH BRANCH,1960-02-08,Full Service Brick and Mortar Office,3413 Kenilworth Ave,Prince George'S,Hyattsville,Maryland,20781,38.93175424958196,-76.93212834975316
3510,"Bank of America, National Association",0,CORNERSTONE OF BETHESDA BRANCH,1947-07-14,Full Service Brick and Mortar Office,6822 Wisconsin Ave,Montgomery,Bethesda,Maryland,20815,38.9778879932025,-77.09158198772538
3510,"Bank of America, National Association",0,BELTSVILLE BRANCH,1959-05-18,Full Service Brick and Mortar Office,10630 Baltimore Ave,Prince George'S,Beltsville,Maryland,20705,39.0306164086939,-76.9142995387848
3510,"Bank of America, National Association",0,PATTERSON AVENUE BRANCH,1975-06-23,Full Service Brick and Mortar Office,8001 Patterson Ave,Henrico,Richmond,Virginia,23229,37.59325399882778,-77.54946800766022
3510,"Bank of America, National Association",0,MALVERN BRANCH,1955-11-15,Full Service Brick and Mortar Office,4101 W Broad St,Richmond City,Richmond,Virginia,23230,37.57340301180882,-77.484095030224
3510,"Bank of America, National Association",0,HIGHWAY M BRANCH,1985-11-18,Full Service Brick and Mortar Office,4141 S Campbell Ave,Greene,Springfield,Missouri,65807,37.13886499271675,-93.2969619768192
3510,"Bank of America, National Association",0,BRICKELL BRANCH,1933-11-06,Full Service Brick and Mortar Office,701 Brickell Ave,Miami-Dade,Miami,Florida,33131,25.76691299014115,-80.18915797592567
3510,"Bank of America, National Association",0,OCEAN CITY SOUTH BRANCH,1966-04-18,Full Service Brick and Mortar Office,4401 Coastal Hwy,Worcester,Ocean City,Maryland,21842,38.37073901126661,-75.07105398693636
3510,"Bank of America, National Association",0,BRANCHBURG TOWNSHIP BRANCH,1987-05-23,Full Service Brick and Mortar Office,1090 Us Highway 202 S,Somerset,Somerville,New Jersey,08876,40.56187901672064,-74.70144298612207
3510,"Bank of America, National Association",0,NORTH ASHEVILLE BRANCH,1974-02-21,Full Service Brick and Mortar Office,892 Merrimon Ave,Buncombe,Asheville,North Carolina,28804,35.62892598827786,-82.55300998806628
3510,"Bank of America, National Association",0,BILTMORE VILLAGE BRANCH,1969-05-22,Full Service Brick and Mortar Office,124 Hendersonville Rd,Buncombe,Asheville,North Carolina,28803,35.56472601628151,-82.5423969899036
3510,"Bank of America, National Association",0,SKYLAND BRANCH,1961-10-17,Full Service Brick and Mortar Office,1896 Hendersonville Rd,Buncombe,Asheville,North Carolina,28803,35.49837399064488,-82.52050496755191
3510,"Bank of America, National Association",0,CANDLER BRANCH,1959-10-12,Full Service Brick and Mortar Office,1189 Smokey Park Hwy,Buncombe,Candler,North Carolina,28715,35.54551498757,-82.66879701179862
3510,"Bank of America, National Association",0,WEST ASHEVILLE BRANCH,1957-05-23,Full Service Brick and Mortar Office,975 Patton Ave,Buncombe,Asheville,North Carolina,28806,35.587425006361414,-82.58953304150586
3510,"Bank of America, National Association",0,FREEHOLD WEST BRANCH,1991-01-19,Full Service Brick and Mortar Office,510 W Main St,Monmouth,Freehold,New Jersey,07728,40.23945301782314,-74.3048310253326
3510,"Bank of America, National Association",0,DOWNTOWN JACKSONVILLE BRANCH,1877-05-07,Full Service Brick and Mortar Office,50 N Laura St,Duval,Jacksonville,Florida,32202,30.32709298670622,-81.65990403930653
3510,"Bank of America, National Association",0,BRICKTOWN BRANCH,1975-06-28,Full Service Brick and Mortar Office,39 Brick Blvd,Ocean,Brick,New Jersey,08723,40.02356944753886,-74.144157391965
3510,"Bank of America, National Association",0,OCEAN BRANCH,1970-09-09,Full Service Brick and Mortar Office,1100 State Route 35,Monmouth,Ocean,New Jersey,07712,40.23899742280871,-74.03745447301037
3510,"Bank of America, National Association",0,DOWNTOWN TAMPA BRANCH,1883-01-01,Full Service Brick and Mortar Office,101 E Kennedy Blvd,Hillsborough,Tampa,Florida,33602,27.94686998610705,-82.45908900278577
3510,"Bank of America, National Association",0,LANDOVER HILLS BRANCH,1951-09-21,Full Service Brick and Mortar Office,7515 Annapolis Rd,Prince George'S,Hyattsville,Maryland,20784,38.950595384906336,-76.88553938497115
3510,"Bank of America, National Association",0,EAST RIVERDALE BRANCH,1959-11-03,Full Service Brick and Mortar Office,5710 Riverdale Rd,Prince George'S,Riverdale,Maryland,20737,38.95963966798021,-76.91818781984885
3510,"Bank of America, National Association",0,MID-PIKE PLAZA BRANCH,1965-05-24,Full Service Brick and Mortar Office,11800 Rockville Pike,Montgomery,Rockville,Maryland,20852,39.04979198195497,-77.11530595883508
3510,"Bank of America, National Association",0,BRONX-149TH STREET BRANCH,1916-04-15,Full Service Brick and Mortar Office,329 A East 149th Street,Bronx,Bronx,New York,10451,40.816865529786654,-73.92040398441694
3510,"Bank of America, National Association",0,GATEWAY PLAZA BRANCH,1998-11-16,Full Service Brick and Mortar Office,7516 N Clark St,Cook,Chicago,Illinois,60626,42.018562006772754,-87.67625702902501
3510,"Bank of America, National Association",0,HARVESTER BRANCH,1985-05-15,Full Service Brick and Mortar Office,1555 Jungermann Rd,St. Charles,Saint Peters,Missouri,63376,38.74876699352114,-90.59016699464534
3510,"Bank of America, National Association",0,MID RIVERS BRANCH,1976-11-15,Full Service Brick and Mortar Office,200 Mid Rivers Mall Cir,St. Charles,Saint Peters,Missouri,63376,38.79658998399813,-90.62011201429186
3510,"Bank of America, National Association",0,LAKE ARBOR BRANCH,1990-12-17,Full Service Brick and Mortar Office,10200 Lake Arbor Way,Prince George'S,Mitchellville,Maryland,20721,38.90573300835945,-76.82951306776586
3510,"Bank of America, National Association",0,FREDERICK WEST BRANCH,1990-04-09,Full Service Brick and Mortar Office,1070 W Patrick St,Frederick,Frederick,Maryland,21703,39.41678900244497,-77.44481701284872
3510,"Bank of America, National Association",0,HANOVER PARKWAY BRANCH,1990-03-05,Full Service Brick and Mortar Office,7595 Ora Glen Dr,Prince George'S,Greenbelt,Maryland,20770,38.990804757452935,-76.87538470927412
3510,"Bank of America, National Association",0,MONTGOMERY VILLAGE BRANCH,1984-01-23,Full Service Brick and Mortar Office,19294 Montgomery Village Ave,Montgomery,Montgomery Village,Maryland,20886,39.17235900143737,-77.20414197873517
3510,"Bank of America, National Association",0,BEL PRE BRANCH,1983-11-28,Full Service Brick and Mortar Office,2101 Bel Pre Rd,Montgomery,Silver Spring,Maryland,20906,39.09098601857713,-77.04531002652148
3510,"Bank of America, National Association",0,NEW HAMPSHIRE AVENUE BRANCH,1982-04-05,Full Service Brick and Mortar Office,6495 New Hampshire Ave,Prince George'S,Hyattsville,Maryland,20783,38.96798146374894,-77.00001204246655
3510,"Bank of America, National Association",0,QUINCE ORCHARD BRANCH,1980-04-28,Full Service Brick and Mortar Office,1048 Quince Orchard Rd,Montgomery,Gaithersburg,Maryland,20878,39.11853498738191,-77.25252299441608
3510,"Bank of America, National Association",0,HOWELL BRANCH,1970-07-27,Full Service Brick and Mortar Office,4005 Us Route 9 North,Monmouth,Howell,New Jersey,07731,40.15486657863079,-74.22945603366821
3510,"Bank of America, National Association",0,VEIRS MILL BRANCH,1976-03-29,Full Service Brick and Mortar Office,12125 Veirs Mill Rd,Montgomery,Silver Spring,Maryland,20906,39.05600301411749,-77.08082096515261
3510,"Bank of America, National Association",0,KETTERING BRANCH,1973-11-06,Full Service Brick and Mortar Office,10600 Campus Way S,Prince George'S,Upper Marlboro,Maryland,20774,38.89750197944116,-76.82331096233023
3510,"Bank of America, National Association",0,COLESVILLE BRANCH,1973-09-10,Full Service Brick and Mortar Office,13311 New Hampshire Ave,Montgomery,Silver Spring,Maryland,20904,39.07444999044503,-77.00171097042119
3510,"Bank of America, National Association",0,DEMOCRACY BOULEVARD BRANCH,1973-08-20,Full Service Brick and Mortar Office,10400 Old Georgetown Rd,Montgomery,Bethesda,Maryland,20814,39.02530601202759,-77.12717003986573
3510,"Bank of America, National Association",0,OLNEY BRANCH,1973-05-14,Full Service Brick and Mortar Office,3200 Onley Sandy Spring Road,Montgomery,Olney,Maryland,20832,39.152798683113815,-77.07121778027556
3510,"Bank of America, National Association",0,NORTH SILVER SPRING BRANCH,1971-06-01,Full Service Brick and Mortar Office,8788 Georgia Ave,Montgomery,Silver Spring,Maryland,20910,38.99886500509402,-77.03222000833239
3510,"Bank of America, National Association",0,GAITHERSBURG SQUARE BRANCH,1967-01-30,Full Service Brick and Mortar Office,474 N Frederick Ave,Montgomery,Gaithersburg,Maryland,20877,39.14883200505227,-77.20827702302871
3510,"Bank of America, National Association",0,WHITE OAK BRANCH,1966-12-12,Full Service Brick and Mortar Office,11499 Columbia Pike,Montgomery,Silver Spring,Maryland,20904,39.04458401214544,-76.988105968101
3510,"Bank of America, National Association",0,WHEATON BRANCH,1948-12-20,Full Service Brick and Mortar Office,2601 University Blvd W,Montgomery,Wheaton,Maryland,20902,39.04127500440984,-77.05337299828109
3510,"Bank of America, National Association",0,QUEENS CHAPEL BRANCH,1948-01-05,Full Service Brick and Mortar Office,5416 Queens Chapel Rd,Prince George'S,Hyattsville,Maryland,20782,38.95635320756415,-76.96170557148834
3510,"Bank of America, National Association",0,WOODMOOR - FOUR CORNERS BRANCH,1955-02-14,Full Service Brick and Mortar Office,10151 Colesville Rd,Montgomery,Silver Spring,Maryland,20901,39.02122301935276,-77.01175198751118
3510,"Bank of America, National Association",0,ROCKVILLE  BRANCH,1962-08-20,Full Service Brick and Mortar Office,275 N Washington St,Montgomery,Rockville,Maryland,20850,39.08818600191185,-77.15322602407691
3510,"Bank of America, National Association",0,TIMONIUM BRANCH,1974-03-25,Full Service Brick and Mortar Office,1821 York Rd,Baltimore,Lutherville Timonium,Maryland,21093,39.43195999573541,-76.6218860338544
3510,"Bank of America, National Association",0,SHREWSBURY BRANCH,1964-02-20,Full Service Brick and Mortar Office,691 Shrewsbury Ave,Monmouth,Shrewsbury,New Jersey,07702,40.32382797930569,-74.07245600320047
3510,"Bank of America, National Association",0,BRADLEY BEACH BRANCH,1961-10-11,Full Service Brick and Mortar Office,522 Main St,Monmouth,Bradley Beach,New Jersey,07720,40.20287664465755,-74.01796613565402
3510,"Bank of America, National Association",0,CONSTELLATION CENTER BRANCH,1967-01-28,Full Service Brick and Mortar Office,6011 Oxon Hill Rd,Prince George'S,Oxon Hill,Maryland,20745,38.80500813890481,-76.97890749991821
3510,"Bank of America, National Association",0,FIVE POINTS BRANCH,1941-08-15,Full Service Brick and Mortar Office,2111 Devine St,Richland,Columbia,South Carolina,29205,33.99919001571796,-81.01501398767113
3510,"Bank of America, National Association",0,CAMDEN BRANCH,1963-01-07,Full Service Brick and Mortar Office,200 E Dekalb St,Kershaw,Camden,South Carolina,29020,34.24726899445396,-80.59952497510217
3510,"Bank of America, National Association",0,BEND-THIRD STREET BRANCH,1973-12-26,Full Service Brick and Mortar Office,1210 Ne 3rd St,Deschutes,Bend,Oregon,97701,44.0620980673045,-121.30245175277544
3510,"Bank of America, National Association",0,LLOYD CENTER BRANCH,1973-06-11,Full Service Brick and Mortar Office,1200 Ne Broadway St,Multnomah,Portland,Oregon,97232,45.5346569817209,-122.65294497024873
3510,"Bank of America, National Association",0,WILSONVILLE BRANCH,1968-02-17,Full Service Brick and Mortar Office,29778 Sw Town Center Loop W,Clackamas,Wilsonville,Oregon,97070,45.30429499936491,-122.7655099904004
3510,"Bank of America, National Association",0,OREGON CITY BRANCH,1960-12-30,Full Service Brick and Mortar Office,1841 Molalla Ave,Clackamas,Oregon City,Oregon,97045,45.33006599886812,-122.58455601641188
3510,"Bank of America, National Association",0,LAKE GROVE BRANCH,1958-05-20,Full Service Brick and Mortar Office,16209 Bryant Rd,Clackamas,Lake Oswego,Oregon,97035,45.408087980657854,-122.72354800380931
3510,"Bank of America, National Association",0,LAKE OSWEGO BRANCH,1969-04-23,Full Service Brick and Mortar Office,400 4th St,Clackamas,Lake Oswego,Oregon,97034,45.42008298701612,-122.66755102326512
3510,"Bank of America, National Association",0,122ND AND STARK BRANCH,1954-10-02,Full Service Brick and Mortar Office,510 Se 122nd Ave,Multnomah,Portland,Oregon,97233,45.51839101850911,-122.5372290250553
3510,"Bank of America, National Association",1,"Bank of America, National Association",1904-10-17,Full Service Brick and Mortar Office,100 N Tryon St,Mecklenburg,Charlotte,North Carolina,28202,35.227620892290524,-80.84241441214161
3510,"Bank of America, National Association",0,BANK OF AMERICA PLAZA BRANCH,1871-01-01,Full Service Brick and Mortar Office,333 S Hope St Ste 100,Los Angeles,Los Angeles,California,90071,34.05374099223583,-118.25326396071038
3510,"Bank of America, National Association",0,SAVANNAH HIGHWAY BRANCH,1950-02-15,Full Service Brick and Mortar Office,901 Savannah Hwy,Charleston,Charleston,South Carolina,29407,32.78203872627674,-79.98904498293486
3510,"Bank of America, National Association",0,WEST SPRINGFIELD MEMORIAL BRANCH,1952-04-14,Full Service Brick and Mortar Office,225 Memorial Ave,Hampden,West Springfield,Massachusetts,01089,42.09634451758879,-72.60034042065979
3510,"Bank of America, National Association",0,PWM HARTFORD CITY PLACE BRANCH,1991-07-12,Limited Service Facility Office,185 Asylum St,Hartford,Hartford,Connecticut,06103,41.7667710183965,-72.67664700405516
3510,"Bank of America, National Association",0,MAPLE AVENUE BRANCH,1956-06-27,Full Service Brick and Mortar Office,790 Maple Ave,Hartford,Hartford,Connecticut,06114,41.73833801026379,-72.68487996081117
3510,"Bank of America, National Association",0,ALBANY AVENUE BRANCH,1951-07-02,Full Service Brick and Mortar Office,919 Albany Ave,Hartford,Hartford,Connecticut,06112,41.78028101184418,-72.6919090248141
3510,"Bank of America, National Association",0,BRISTOL-FARMINGTON AVE BRANCH,1965-09-11,Full Service Brick and Mortar Office,1232 Farmington Ave,Hartford,Bristol,Connecticut,06010,41.69698098753437,-72.9024600018293
3510,"Bank of America, National Association",0,FORT CAMPBELL BRANCH,1998-08-10,Full Service Brick and Mortar Office,201 Bastogne Avenue,Montgomery,Clarksville,Tennessee,37044,36.640747,-87.44533
3510,"Bank of America, National Association",0,HENDERSONVILLE NORTH BRANCH,1991-11-18,Full Service Brick and Mortar Office,345 E Main St,Sumner,Hendersonville,Tennessee,37075,36.31240099962447,-86.59439296768717
3510,"Bank of America, National Association",0,NORTHFIELD BRANCH,1989-01-01,Full Service Brick and Mortar Office,1625 Memorial Blvd,Rutherford,Murfreesboro,Tennessee,37129,35.86609399219327,-86.38892502821466
3510,"Bank of America, National Association",0,CUNNINGHAM PLAZA BRANCH,1991-09-09,Full Service Brick and Mortar Office,1648 Fort Campbell Blvd,Montgomery,Clarksville,Tennessee,37042,36.57808800999918,-87.40961402068362
3510,"Bank of America, National Association",0,LEBANON WEST BRANCH,1991-01-02,Full Service Brick and Mortar Office,1416 W Main St,Wilson,Lebanon,Tennessee,37087,36.21523801992426,-86.33146297481444
3510,"Bank of America, National Association",0,KNOXVILLE MAIN BRANCH,1990-03-09,Full Service Brick and Mortar Office,550 W Main St,Knox,Knoxville,Tennessee,37902,35.96013299467049,-83.91888897117175
3510,"Bank of America, National Association",0,HICKORY PLAZA BRANCH,1988-08-01,Full Service Brick and Mortar Office,5801 Nolensville Pike,Davidson,Nashville,Tennessee,37211,36.044866994975536,-86.71402896135767
3510,"Bank of America, National Association",0,LONGMEADOW BRANCH,1962-08-01,Full Service Brick and Mortar Office,734 Bliss Rd,Hampden,Longmeadow,Massachusetts,01106,42.05704847912168,-72.5549382495484
3510,"Bank of America, National Association",0,HARLEM EAST BRANCH,1927-11-07,Full Service Brick and Mortar Office,157 E 125th St,New York,New York,New York,10035,40.80425679255475,-73.93670621977034
3510,"Bank of America, National Association",0,DUTCH SQUARE BRANCH,1966-10-24,Full Service Brick and Mortar Office,330 Bush River Rd,Richland,Columbia,South Carolina,29210,34.03040401359573,-81.0913100098685
3510,"Bank of America, National Association",0,DENTSVILLE BRANCH,1967-10-06,Full Service Brick and Mortar Office,7405 Two Notch Rd,Richland,Columbia,South Carolina,29223,34.07096999421296,-80.95129601701689
3510,"Bank of America, National Association",0,PARKAIRE BRANCH,1974-08-23,Full Service Brick and Mortar Office,4851 Lower Roswell Rd,Cobb,Marietta,Georgia,30068,33.966578000209566,-84.40991401877716
3510,"Bank of America, National Association",0,CUMBERLAND BRANCH,1973-08-01,Full Service Brick and Mortar Office,3057 Akers Mill Rd Se,Cobb,Atlanta,Georgia,30339,33.87887399824284,-84.46394602975992
3510,"Bank of America, National Association",0,LEONIA BRANCH,1973-07-07,Full Service Brick and Mortar Office,301 Fort Lee Rd,Bergen,Leonia,New Jersey,07605,40.8617299938862,-73.9875759901421
3510,"Bank of America, National Association",0,NORTHWOODS BRANCH,1972-09-27,Full Service Brick and Mortar Office,7420 Rivers Ave,Charleston,North Charleston,South Carolina,29406,32.93765299158993,-80.03880800681134
3510,"Bank of America, National Association",0,200 MEETING STREET BRANCH,1969-10-06,Full Service Brick and Mortar Office,200 Meeting St,Charleston,Charleston,South Carolina,29401,32.7817984171127,-79.93150883351058
3510,"Bank of America, National Association",0,TRENHOLM ROAD BRANCH,1969-03-10,Full Service Brick and Mortar Office,5004 Trenholm Rd,Richland,Columbia,South Carolina,29206,34.01626001299185,-80.96584800675784
3510,"Bank of America, National Association",0,CAYCE PARK PLACE BRANCH,1959-05-13,Full Service Brick and Mortar Office,440 Knox Abbott Dr,Lexington,Cayce,South Carolina,29033,33.986073007800655,-81.05548198384022
3510,"Bank of America, National Association",0,AIKEN MALL BRANCH,1992-07-23,Full Service Brick and Mortar Office,150 Aiken Mall Dr,Aiken,Aiken,South Carolina,29803,33.50916501298042,-81.71262595882295
3510,"Bank of America, National Association",0,HARBISON BRANCH,1989-04-19,Full Service Brick and Mortar Office,301 Harbison Blvd,Lexington,Columbia,South Carolina,29212,34.07429299972685,-81.1566419997982
3510,"Bank of America, National Association",0,INDIGO RUN BRANCH,1989-02-21,Full Service Brick and Mortar Office,21 Hatton Pl,Beaufort,Hilton Head Island,South Carolina,29926,32.21291097915402,-80.72260903228195
3510,"Bank of America, National Association",0,CAROLINA FOREST BRANCH,1987-06-30,Full Service Brick and Mortar Office,1000 Glenforest Rd,Horry,Myrtle Beach,South Carolina,29579,33.75759301416464,-78.9658549981964
3510,"Bank of America, National Association",0,ANDERSON MAIN BRANCH,1967-05-19,Full Service Brick and Mortar Office,3005 N Main St,Anderson,Anderson,South Carolina,29621,34.5344659800336,-82.666586033379
3510,"Bank of America, National Association",0,SUNSET BOULEVARD BRANCH,1982-04-15,Full Service Brick and Mortar Office,2021 Sunset Blvd,Lexington,West Columbia,South Carolina,29169,33.998478014952724,-81.09697600877703
3510,"Bank of America, National Association",0,HAYWOOD ROAD BRANCH,1980-01-10,Full Service Brick and Mortar Office,911 Haywood Rd,Greenville,Greenville,South Carolina,29615,34.85642301144843,-82.33545098562513
3510,"Bank of America, National Association",0,JEAN RIBAUT SQUARE BRANCH,1979-11-16,Full Service Brick and Mortar Office,2115 Boundary St,Beaufort,Beaufort,South Carolina,29902,32.442268013228784,-80.69122802498342
3510,"Bank of America, National Association",0,HECKLE AND HERLONG BRANCH,1978-11-20,Full Service Brick and Mortar Office,1710 Heckle Blvd,York,Rock Hill,South Carolina,29732,34.95239299486968,-81.06225296904438
3510,"Bank of America, National Association",0,OAKBROOK BRANCH,1978-11-27,Full Service Brick and Mortar Office,10090 Dorchester Rd,Dorchester,Summerville,South Carolina,29485,32.952966016229695,-80.16514197930933
3510,"Bank of America, National Association",0,FAIRVIEW ROAD BRANCH,1974-02-12,Full Service Brick and Mortar Office,622 Fairview Rd,Greenville,Simpsonville,South Carolina,29680,34.71617600168855,-82.25657199614521
3510,"Bank of America, National Association",0,NORTH MYRTLE BEACH BRANCH,1974-02-11,Full Service Brick and Mortar Office,1339 Highway 17 S,Horry,North Myrtle Beach,South Carolina,29582,33.81545199258973,-78.69583198739953
3510,"Bank of America, National Association",0,SUMMERVILLE MAIN BRANCH,1972-10-16,Full Service Brick and Mortar Office,600 N Main St,Dorchester,Summerville,South Carolina,29483,33.0269480045079,-80.17033800490682
3510,"Bank of America, National Association",0,HILLCREST BRANCH,1972-07-10,Full Service Brick and Mortar Office,1604 E Main St,Spartanburg,Spartanburg,South Carolina,29307,34.964952019492614,-81.89827798954131
3510,"Bank of America, National Association",0,POINSETT HIGHWAY BRANCH,1969-10-30,Full Service Brick and Mortar Office,1601 Poinsett Hwy,Greenville,Greenville,South Carolina,29609,34.88989299856587,-82.4061449628352
3510,"Bank of America, National Association",0,FOLLY ROAD BRANCH,1969-06-26,Full Service Brick and Mortar Office,540 Folly Rd,Charleston,Charleston,South Carolina,29412,32.75210887787496,-79.97176476752934
3510,"Bank of America, National Association",0,WESTWOOD PLAZA BRANCH,1969-05-22,Full Service Brick and Mortar Office,1806 Sam Rittenberg Blvd,Charleston,Charleston,South Carolina,29407,32.80146001502939,-80.01850024797884
3510,"Bank of America, National Association",0,SWEETGRASS BRANCH,1980-01-16,Full Service Brick and Mortar Office,1929 N Highway 17,Charleston,Mount Pleasant,South Carolina,29464,32.83274680973624,-79.82620690009846
3510,"Bank of America, National Association",0,WEST BRANDON BRANCH,1989-02-06,Full Service Brick and Mortar Office,2105 W Brandon Blvd,Hillsborough,Brandon,Florida,33511,27.937250997841943,-82.31913804184606
3510,"Bank of America, National Association",0,NASSAU BRANCH (FRGN),1981-04-01,Full Service Brick and Mortar Office,Main Street,Not Supplied,Nassau,,00000,0.0,0.0
3510,"Bank of America, National Association",0,BELL TOWER BRANCH,1989-09-11,Full Service Brick and Mortar Office,13099 Us 41,Lee,Fort Myers,Florida,33907,26.55085737773764,-81.87147588586171
3510,"Bank of America, National Association",0,HAZELWOOD BRANCH,1964-09-08,Full Service Brick and Mortar Office,7601 N Lindbergh Blvd,St. Louis,Hazelwood,Missouri,63042,38.78628598469604,-90.35246803907329
3510,"Bank of America, National Association",0,FALLBROOK BRANCH,1972-10-09,Full Service Brick and Mortar Office,1125 S Main Ave,San Diego,Fallbrook,California,92028,33.371946007652184,-117.25185996724844
3510,"Bank of America, National Association",0,OCEAN DRIVE BRANCH,1979-08-06,Full Service Brick and Mortar Office,3900 S Ocean Dr,Broward,Hollywood,Florida,33019,25.988106008613528,-80.11948399251303
3510,"Bank of America, National Association",0,BUFORD HIGHWAY BRANCH,1963-01-25,Full Service Brick and Mortar Office,5001 Buford Hwy,Dekalb,Chamblee,Georgia,30341,33.888367006503216,-84.28622302798844
3510,"Bank of America, National Association",0,NORWALK MAIN STREET BRANCH,1963-02-04,Full Service Brick and Mortar Office,220 Main St,Fairfield,Norwalk,Connecticut,06851,41.12951201905008,-73.42245701394158
3510,"Bank of America, National Association",0,SHIPPAN BRANCH,1979-07-16,Full Service Brick and Mortar Office,417 Shippan Ave,Fairfield,Stamford,Connecticut,06902,41.04523001287376,-73.52442797903177
3510,"Bank of America, National Association",0,CUTLERVILLE BRANCH,1979-10-01,Full Service Brick and Mortar Office,6737 Division Ave S,Kent,Grand Rapids,Michigan,49548,42.84099899830344,-85.66415803770728
3510,"Bank of America, National Association",0,TEMPLE TERRACE BRANCH,1979-12-01,Full Service Brick and Mortar Office,9385 N 56th St,Hillsborough,Temple Terrace,Florida,33617,28.03556598631458,-82.39303600154493
3510,"Bank of America, National Association",0,CARONDELET BRANCH,1963-10-03,Full Service Brick and Mortar Office,10731 State Line Rd,Jackson,Kansas City,Missouri,64114,38.93340900490685,-94.60763900289668
3510,"Bank of America, National Association",0,WATKINS CROSSING BRANCH,1973-01-23,Full Service Brick and Mortar Office,6320 Prospect Ave,Jackson,Kansas City,Missouri,64132,39.01168701192907,-94.557072992696
3510,"Bank of America, National Association",0,CHESTERFIELD COMMONS BRANCH,1985-02-21,Full Service Brick and Mortar Office,16900 Chesterfield Airport Rd,St. Louis,Chesterfield,Missouri,63005,38.66793699034858,-90.58714196578931
3510,"Bank of America, National Association",0,RUSSELL PARKWAY BRANCH,1982-04-06,Full Service Brick and Mortar Office,111 Russell Pkwy,Houston,Warner Robins,Georgia,31088,32.59348500640759,-83.62430899572759
3510,"Bank of America, National Association",0,AVENTURA MALL BRANCH,1984-12-31,Full Service Brick and Mortar Office,19645 Biscayne Blvd,Miami-Dade,Aventura,Florida,33180,25.95738800985617,-80.14635000384709
3510,"Bank of America, National Association",0,POLO CLUB BRANCH,1984-08-20,Full Service Brick and Mortar Office,17960 North Military Trail,Palm Beach,Boca Raton,Florida,33496,26.410479,-80.121645
3510,"Bank of America, National Association",0,GARDEN SHOPS BRANCH,1980-01-28,Full Service Brick and Mortar Office,4501 Pga Blvd,Palm Beach,Palm Beach Gardens,Florida,33418,26.83867798970951,-80.10568503295336
3510,"Bank of America, National Association",0,PALM BEACH BRANCH,1977-12-05,Full Service Brick and Mortar Office,140 N County Rd,Palm Beach,Palm Beach,Florida,33480,26.71979800179591,-80.03807400355026
3510,"Bank of America, National Association",0,MEREDITH BRANCH,1993-08-09,Full Service Brick and Mortar Office,8525 Meredith Dr,Polk,Urbandale,Iowa,50322,41.64423660451743,-93.73588855086636
3510,"Bank of America, National Association",0,WESTPORT AVENUE BRANCH,1983-09-14,Full Service Brick and Mortar Office,578 Westport Ave,Fairfield,Norwalk,Connecticut,06851,41.1277140169999,-73.38245496777
3510,"Bank of America, National Association",0,ZEPHYRHILLS BRANCH,1982-06-08,Full Service Brick and Mortar Office,5632 Gall Blvd,Pasco,Zephyrhills,Florida,33542,28.2396740039064,-82.18442803350483
